stop_id,stop_name,stop_lat,stop_lon,parent_station
100002,Government at Belleville (SB),48.419736,-123.368999,
100003,Legislature Terminus Bay D,48.419141,-123.368942,
100004,Superior at Government (WB),48.418292,-123.369349,
100005,Belleville at Douglas (WB),48.420489,-123.367333,
100008,Superior at Menzies (WB),48.418261,-123.372801,
100009,Patrica Bay at Haliburton (SB),48.51395,-123.384455,
100010,Douglas at Humboldt (NB),48.4218948,-123.3659556,
100011,Menzies at Superior (SB),48.417842,-123.372635,
100012,Douglas at Elliot Street (NB),48.419223,-123.365871,
100013,Menzies at Michigan (NB),48.417168,-123.372808,
100014,Gordon Head at San Juan (SB),48.47933622,-123.3076121,
100015,Humboldt at Penwell (SB),48.42155146,-123.365418,
100016,Sooke at Townsend (EB),48.37837,-123.722045,
100017,Burdett at Douglas (EB),48.422044,-123.365448,
100018,Sooke 5250 block (EB),48.389028,-123.642837,
100019,Douglas at Courtney (SB),48.422729,-123.365951,
100021,Superior at Oswego (EB),48.419392,-123.376034,
100022,Menzies at Michigan (SB),48.416605,-123.373333,
100024,Blanshard Terminus Bay B,48.421222,-123.363362,
100025,Blanshard Terminus Bay A ,48.421881,-123.36407,
100026,Government at Broughton (NB),48.424059,-123.36795,
100028,Fort at Langley (EB),48.424948,-123.368905,
100029,Legislature Terminus Bay C,48.418968,-123.368941,
100030,Oswego at Michigan (NB),48.418739,-123.377113,
100031,Menzies at Simcoe (NB),48.415551,-123.373694,
100032,Douglas at Fort (NB),48.424366,-123.365305,
100033,Fort at Douglas (EB),48.424495,-123.36457,
100034,Douglas at Fort (SB),48.424957,-123.365339,
100035,Fairfield at Quadra (WB),48.420206,-123.36074,
100036,Menzies at Simcoe (SB),48.414961,-123.374471,
100037,Douglas at Avalon (NB),48.414869,-123.366292,
100039,Fairfield at Quadra (EB),48.420182,-123.360993,
100040,Humboldt at Quadra (WB),48.418809,-123.361062,
100041,Humboldt at Quadra (EB),48.418614,-123.361003,
100042,Douglas at View (SB),48.425742,-123.365108,
100043,Fairfield at Quadra (EB),48.419355,-123.360263,
100044,Oswego at St James (NB),48.417058,-123.378942,
100045,Fort at Blanshard (EB),48.424168,-123.361818,
100046,Douglas at Avalon (SB),48.413574,-123.367266,
100047,Wharf at Yates (SB),48.427086,-123.370485,
100048,Yates at Broad (WB),48.426436,-123.365694,
100049,Niagara at Medana (WB),48.413682,-123.375213,
100050,Government at Johnson (NB),48.427221,-123.36723,
100051,Douglas at Yates (NB),48.426702,-123.364656,
100052,Niagara at Medana (EB),48.41357,-123.37527,
100053,Johnson at Store (EB),48.42774,-123.369684,
100054,Niagara at Clarence (WB),48.412986,-123.373735,
100055,Johnson at Broad (EB),48.427247,-123.365612,
100056,Fairfield at Vancouver (EB),48.418359,-123.358644,
100058,Niagara at Clarence (EB),48.412816,-123.37365,
100059,Humboldt at Vancouver (EB),48.417346,-123.359065,
100060,Humboldt at Vancouver (WB),48.417461,-123.358954,
100061,Gorge at Millgrove (EB),48.44659758,-123.3949888,
100062,Vancouver at Collinson (SB),48.418881,-123.358205,
100063,Johnson at Douglas (EB),48.427049,-123.363961,
100064,Fort at Quadra (EB),48.423881,-123.359202,
100065,Niagara at Government (WB),48.412238,-123.372097,
100068,Yates at Quadra (WB),48.425877,-123.360565,
100069,Quadra at View (NB),48.424419,-123.359495,
100070,Fairfield at Vancouver (EB),48.418178,-123.35743,
100071,University at Ring (NB),48.46011166,-123.3144353,
100072,Niagara at Government (EB),48.411928,-123.371791,
100073,Fairfield at Vancouver (WB),48.418372,-123.357998,
100074,Richardson at Vancouver (EB),48.41983,-123.357267,
100075,Richardson at Vancouver (WB),48.419959,-123.357471,
100076,Douglas at Pandora (NB),48.427709,-123.364449,
100077,Pandora at Government (WB),48.428602,-123.367531,
100078,Douglas at Beacon (SB),48.411251,-123.368572,
100079,Johnson at Blanshard (EB),48.426724,-123.36125,
100080,Douglas at Beacon (NB),48.411962,-123.368007,
100082,Douglas at Cormorant (SB),48.428675,-123.364569,
100084,Pandora at Blanshard (WB),48.427901,-123.36245,
100085,Quadra at Johnson (NB),48.426144,-123.359061,
100086,Erie at Dallas (WB),48.421579,-123.38329,
100089,Oswego at Dallas (NB),48.414503,-123.381661,
100090,Niagara at Douglas (EB),48.410626,-123.368975,
100091,Fairfield at Cook (WB),48.418153,-123.356219,
100092,Fairfield at Cook (EB),48.418,-123.355746,
100093,Johnson at Quadra (EB),48.426459,-123.358604,
100094,Richardson at Cook (WB),48.419737,-123.355444,
100095,Cook at Fairfield (SB),48.418249,-123.35539,
100096,Cook at Richardson (SB),48.419423,-123.355122,
100097,Esquimalt at Tyee (WB),48.428816,-123.37795,
100099,Esquimalt at Tyee (EB),48.428646,-123.377998,
100100,Cook at Fairfield (NB),48.41835,-123.355177,
100101,Quadra at Pandora (SB),48.427271,-123.359037,
100102,Cook at Oscar (SB),48.416043,-123.355956,
100105,Cook at Richardson (NB),48.419857,-123.354811,
100106,Yates at Vancouver (WB),48.425502,-123.357145,
100108,East Sooke at Llanilar (NB),48.3664156,-123.6840487,
100109,Richardson at Cook (EB),48.419519,-123.354424,
100110,Dallas at Simcoe (SB),48.421117,-123.385517,
100111,Dallas at Niagara (SB),48.418629,-123.385389,
100112,Cook at Rockland (SB),48.421881,-123.354504,
100113,Cook at Southgate (NB),48.416129,-123.355703,
100115,Cook at Pandora (SB),48.427357,-123.353345,
100116,Dallas at Montreal (SB),48.416631,-123.385076,
100117,Cook at Oxford (SB),48.414002,-123.356878,
100118,Quadra at Mason (NB),48.42788247,-123.3588901,
100120,Cook at Sutlej (NB),48.414369,-123.356471,
100121,Cook at Rockland (NB),48.422308,-123.354186,
100122,Cook at Meares (SB),48.42308,-123.354206,
100123,Fairfield at Trutch (EB),48.417466,-123.353748,
100124,Fairfield at Trutch (WB),48.41759,-123.35375,
100125,Johnson at Vancouver (EB),48.426171,-123.355899,
100126,Fort at Cook (EB),48.423272,-123.35346,
100127,Yates at Cook (WB),48.425246,-123.354704,
100128,Cook at Fort (NB),48.423606,-123.353903,
100129,Pandora at Quadra (WB),48.42754701,-123.3587513,
100130,May at Cook (WB),48.412249,-123.357077,
100131,May at Cook (EB),48.412119,-123.356937,
100132,Douglas at Discovery (SB),48.432157,-123.364687,
100133,Quadra at Balmoral (NB),48.42923,-123.358712,
100134,Esquimalt at Sitkum (WB),48.430122,-123.380465,
100135,Quadra at North Park (SB),48.42961,-123.358889,
100136,Metchosin at Cotlow (NB),48.41445253,-123.4833134,
100137,Fairfield at Linden (WB),48.417103,-123.352471,
100138,Richardson at Linden (WB),48.419352,-123.351837,
100139,Richardson at Linden (EB),48.419169,-123.351169,
100141,Fairfield at Linden (EB),48.416731,-123.351845,
100143,Johnson at Cook (EB),48.425821,-123.352734,
100144,Cook at Johnson (NB),48.42622,-123.353298,
100145,Quadra at Caledonia (SB),48.430531,-123.358747,
100146,Douglas at Discovery (NB),48.432172,-123.364472,
100147,Quadra at Caledonia (NB),48.430583,-123.358527,
100148,Esquimalt at Catherine (WB),48.430465,-123.385237,
100149,Tyee at Wilson (SB),48.43102737,-123.3787067,
100150,Pandora at Cook (WB),48.427249,-123.353831,
100151,Wilson 100 block (WB),48.431472,-123.379285,
100152,Bay at Wilson (WB),48.432616,-123.382766,
100153,Fort at Linden (EB),48.422933,-123.350239,
100154,Metchosin at Kenning (SB),48.4139323,-123.4835605,
100155,May at Linden (WB),48.411877,-123.353714,
100156,May at Linden (EB),48.411803,-123.353983,
100157,Swartz Bay Passenger Loop,48.68800142,-123.4121476,
100158,Langford Parkway at Lakepoint Bay F (EB),48.4451035,-123.5335702,
100159,Johnson at Chambers (EB),48.425585,-123.350223,
100160,Cook at Balmoral (NB),48.42872205,-123.3529911,
100161,Esquimalt at Catherine (EB),48.430316,-123.383093,
100162,Fairfield at Cornwall (SB),48.415549,-123.349371,
100163,May at Wellington (EB),48.411541,-123.351547,
100164,Fairfield at Moss (NB),48.415533,-123.349069,
100165,Yates at Ormond (WB),48.424677,-123.348879,
100166,Quadra at Princess (SB),48.432824,-123.358443,
100167,Richardson at Moss (EB),48.418771,-123.347562,
100168,Linden at Faithful (NB),48.409754,-123.353798,
100169,Pandora at Chambers (WB),48.427136,-123.350052,
100170,Bay at Turner (EB),48.434836,-123.375397,
100171,Quadra at Princess (NB),48.433194,-123.358172,
100172,Cook at Caledonia (SB),48.430226,-123.352993,
100173,Wilson at Bay (EB),48.4328,-123.382735,
100174,Richardson at Robleda (WB),48.418862,-123.347114,
100175,Bay at Turner (WB),48.435064,-123.374881,
100176,Wilson at Alston (WB),48.432931,-123.382809,
100177,Douglas at Bay (SB),48.43529,-123.365319,
100178,Douglas at Bay (NB),48.43468167,-123.3647551,
100179,Cook at Caledonia (NB),48.430698,-123.352718,
100180,Bay at Rock Bay (EB),48.435817,-123.36934,
100181,Johnson at Camosun (EB),48.425458,-123.347862,
100182,Tyee at Bay (WB),48.434101,-123.380956,
100183,Bay at Rock Bay (WB),48.435918,-123.368469,
100184,May at Moss (WB),48.411493,-123.350113,
100185,Bay at Douglas (WB),48.435798,-123.365981,
100186,Tyee at Langford (EB),48.434129,-123.38134,
100187,Fort at Fernwood (EB),48.423364,-123.34608,
100188,Wilson at Mary (EB),48.432815,-123.385542,
100189,Wilson at Mary (WB),48.432944,-123.385784,
100190,May at Moss (EB),48.411301,-123.34941,
100191,Yates at Fernwood (WB),48.424601,-123.346261,
100192,Dallas at Wellington (WB),48.407168,-123.353667,
100193,Quadra at Empress (SB),48.435023,-123.358146,
100194,Fernwood at Yates (NB),48.424076,-123.345465,
100195,Douglas at HIllside (SB),48.43867375,-123.3672753,
100196,Cook at Princess (SB),48.432402,-123.352711,
100197,Esquimalt at Maitland (EB),48.430617,-123.389796,
100198,Douglas at Kings (NB),48.437067,-123.366092,
100199,Richardson at Kipling (EB),48.416616,-123.3444,
100200,May at Olive (WB),48.411252,-123.348037,
100201,May at Joseph (EB),48.41113,-123.347839,
100202,Richardson at Kipling (WB),48.416745,-123.344356,
100203,Fernwood at Johnson (NB),48.425761,-123.345349,
100204,Esquimalt at Maitland (WB),48.43084019,-123.3902418,
100205,Fairfield at Kipling (NB),48.413999,-123.34564,
100206,Cook at Princess (NB),48.433018,-123.352439,
100207,Fernwood at Rudlin (SB),48.425849,-123.345522,
100208,Quadra at Bay (NB),48.435571,-123.35798,
100209,Pandora at Fernwood (WB),48.426919,-123.345862,
100210,Fairfield at Kipling (SB),48.413674,-123.345516,
100211,Johnson at Fernwood (EB),48.425395,-123.344975,
100212,Fort at Elford (EB),48.424934,-123.341292,
100213,George at Moss (WB),48.408175,-123.350299,
100214,Fernwood at Pandora (NB),48.427215,-123.345248,
100215,Skinner at Catherine (EB),48.435511,-123.384409,
100216,Fernwood at Grant (SB),48.428374,-123.345399,
100217,Eberts at May (SB),48.410637,-123.346305,
100218,Gorge Rd E at David (EB),48.438544,-123.368096,
100219,Skinner at Catherine (WB),48.435654,-123.385338,
100220,Hillside at Ross (WB),48.43859,-123.365786,
100221,Moss at Point (SB),48.406348,-123.351122,
100222,May at Eberts (EB),48.410907,-123.345836,
100223,Gorge Rd E at David (WB),48.438742,-123.3682,
100224,Fort at Stanley (WB),48.4246,-123.342749,
100225,Wilson at Dalton (EB),48.432526,-123.391202,
100226,Cook at Empress (SB),48.434597,-123.35243,
100227,Fernwood at Grant (NB),48.428865,-123.34517,
100228,Johnson at Stanley (NB),48.425845,-123.343174,
100229,Wilson at Dalton (WB),48.432664,-123.391205,
100230,Bushby at Joseph (WB),48.408357,-123.347867,
100231,Esquimalt at Barnard (EB),48.431303,-123.393218,
100232,Eberts at Bushby (SB),48.409109,-123.34667,
100233,Quadra at Kings (SB),48.437666,-123.358794,
100234,Quadra at Kings (NB),48.437903,-123.358611,
100235,Cook at Bay (NB),48.435219,-123.352165,
100236,Fairfield at Memorial (NB),48.412308,-123.343396,
100237,Hillside at Dowler (EB),48.438963,-123.362391,
100238,Memorial at May (SB),48.411543,-123.343857,
100240,Fernwood at Gladstone (SB),48.430264,-123.345245,
100241,Fairfield at Memorial (SB),48.4121397,-123.3434052,
100242,Esquimalt at Dominion (WB),48.431752,-123.394053,
100243,Memorial at Fairfield (NB),48.411816,-123.343432,
100244,Richardson at Arnold (WB),48.41642122,-123.3413966,
100245,Fernwood at Gladstone (NB),48.430662,-123.345034,
100246,Gorge Rd E at Rock Bay (WB),48.43972,-123.370752,
100247,Strandlund at Peatt (SB),48.455656,-123.496271,
100248,Pandora at Johnson (WB),48.426794,-123.342145,
100249,Richardson at Stannard (EB),48.416184,-123.340418,
100250,Cook at Haultain (SB),48.436148,-123.352276,
100251,Dunsmuir at Esquimalt (NB),48.43166,-123.394759,
100252,Dunsmuir at Garrett (EB),48.430295,-123.396173,
100253,Fernwood at Pembroke (NB),48.431532,-123.34503,
100254,Gorge Rd E at Garbally (EB),48.440318,-123.37272,
100256,Gorge Rd E at Garbally (WB),48.440326,-123.372273,
100257,Quadra at Hillside (SB),48.439104,-123.359195,
100258,Begbie at Elford (WB),48.42759341,-123.3412235,
100259,Dunsmuir at Garrett (WB),48.430191,-123.396762,
100260,Cook at Haultain (NB),48.436713,-123.352003,
100261,Hillside at Quadra (WB),48.439451,-123.359742,
100262,Pandora at Elford (EB),48.426567,-123.340832,
100263,Old Esquimalt at Viewfield (EB),48.43287927,-123.3944793,
100264,Fernwood at Centre (SB),48.432207,-123.345171,
100265,Begbie at Elford (EB),48.427545,-123.340894,
100266,Hillside at Fifth (EB),48.439475,-123.358167,
100267,Head at Paradise (NB),48.428049,-123.399053,
100268,Head at Paradise (SB),48.427892,-123.399276,
100269,Fairfield at Arnold (WB),48.412065,-123.341036,
100270,Gore at Lyall (EB),48.426481,-123.4002,
100271,Quadra at Market (NB),48.440055,-123.35924,
100272,Old Esquimalt at Viewfield (WB),48.433017,-123.394951,
100273,Craigflower at Pine (SB),48.436948,-123.388575,
100274,Gore at Lyall (WB),48.426478,-123.400509,
100275,Dunsmuir at Head (EB),48.42931,-123.398728,
100276,Esquimalt 830 block (WB),48.431849,-123.397028,
100277,Dunsmuir at Head (WB),48.429282,-123.399194,
100278,Hillside at Graham (WB),48.439794,-123.356813,
100279,Fairfield at Stannard (EB),48.41224811,-123.3396718,
100280,Hillside at Graham (EB),48.439771,-123.356014,
100281,Craigflower at Belton (NB),48.437419,-123.388819,
100282,Langford Parkway at Lakepoint Bay E (WB),48.44545431,-123.5324346,
100283,Esquimalt 850 block (EB),48.431526,-123.397927,
100284,Richardson at St Charles (WB),48.416239,-123.338052,
100285,Fernwood at Bay (SB),48.434253,-123.345095,
100286,Fort at Belmont (EB),48.42591,-123.338274,
100287,Legislature Terminus Bay G,48.41857645,-123.3688138,
100288,Gorge Rd E at Jutland (EB),48.44152,-123.375841,
100289,Fernwood at Bay (NB),48.434337,-123.344877,
100290,Burnside Rd E at Dunedin (EB),48.442038,-123.36955,
100291,Douglas at Summit (SB),48.442365,-123.369342,
100292,Burnside Rd E at Dunedin (WB),48.44218,-123.369544,
100293,Richardson at St Charles (EB),48.416164,-123.337087,
100294,Fort at Belmont (WB),48.426264,-123.337788,
100295,Douglas at Summit (NB),48.442585,-123.369092,
100296,Pandora at Belmont (EB),48.42647,-123.337801,
100297,Gorge Rd E at Jutland (WB),48.442217,-123.377189,
100298,Hillside at Bakery (WB),48.440121,-123.3543218,
100299,Esquimalt at Head (EB),48.430624,-123.400301,
100300,Jutland at Cecelia (NB),48.442621,-123.375648,
100301,Hillside at Blackwood (EB),48.440096,-123.353468,
100302,Fernwood at Haultain (SB),48.435933,-123.34502,
100303,Fairfield at St Charles (WB),48.412276,-123.337658,
100304,Quadra at Topaz (SB),48.442066,-123.360027,
100305,Old Esquimalt at Aldebury (EB),48.432902,-123.39923,
100306,Fernwood at Haultain (NB),48.436036,-123.344855,
100307,Esquimalt at Head (WB),48.430404,-123.401109,
100308,Old Esquimalt at Aldebury (WB),48.433017,-123.399134,
100309,Cook at Hillside (SB),48.440072,-123.351937,
100310,Craigflower at Alderman (EB),48.438688,-123.390956,
100311,Hillside at Cook (WB),48.440341,-123.352538,
100312,Oak Bay at McGregor (EB),48.426472,-123.335976,
100313,Fairfield at St Charles (EB),48.412163,-123.336833,
100314,Lyall at MacAulay (EB),48.4267,-123.403953,
100315,Quadra at Topaz (NB),48.442863,-123.360052,
100316,Haultain at Roseberry (WB),48.436281,-123.344032,
100317,Oak Bay at McGregor (WB),48.426586,-123.336271,
100318,Craigflower at Coventry (WB),48.439052,-123.391616,
100319,Jutland at Sumas (SB),48.443659,-123.37486,
100320,Fort at Verrinder (EB),48.427028,-123.33577,
100321,Begbie at Vining (EB),48.429086,-123.336599,
100322,Hillside at Cook (EB),48.440409,-123.35119,
100323,Burnside Rd E at Jutland (EB),48.443866,-123.373336,
100324,Lyall at MacAulay (WB),48.426927,-123.404804,
100325,Gorge Rd E at Washington (WB),48.443147,-123.381582,
100326,Gorge Rd E at Washington (EB),48.44304,-123.382149,
100327,Esquimalt at MacAulay (EB),48.429057,-123.404045,
100328,Finlayson at Burnside Rd E (EB),48.444232,-123.373359,
100329,Cook at Basil (NB),48.440666,-123.351368,
100330,Begbie at Shakespeare (WB),48.429443,-123.335983,
100331,Haultain at Avebury (EB),48.436131,-123.341991,
100332,Ross at St Charles (WB),48.410943,-123.335949,
100333,Quadra at Summit (SB),48.443646,-123.36048,
100335,Ross at St Charles (EB),48.410798,-123.335852,
100336,Hillside at Higgins (WB),48.440828,-123.349719,
100337,Hillside at Higgins (EB),48.440835,-123.348763,
100338,Craigflower at Dominion (EB),48.439545,-123.393465,
100339,Finlayson at Douglas (WB),48.444879,-123.371635,
100340,Fairfield at Lillian (SB),48.4131323,-123.334277,
100342,Old Esquimalt at Head (EB),48.432938,-123.402423,
100343,Finlayson at Nanaimo (EB),48.44506,-123.369827,
100344,Quadra at Spruce (NB),48.444249,-123.360446,
100345,Fairfield at Lillian (NB),48.41306519,-123.3341011,
100346,Burnside Rd E at Frances (WB),48.445005,-123.375391,
100347,Douglas at Finlayson (SB),48.44477195,-123.3707825,
100348,Esquimalt at Lampson (WB),48.429442,-123.40555,
100349,Carey at Ravine (NB),48.45565588,-123.3770095,
100351,Fort at Morrison (WB),48.428093,-123.33403,
100352,Haultain at Asquith (WB),48.436212,-123.340769,
100353,Lyall at Lampson (EB),48.427098,-123.406967,
100354,Cook at Higgins (SB),48.441961,-123.350074,
100355,Legislature Terminus Bay B,48.418818,-123.36895,
100356,Cook at Higgins (NB),48.441943,-123.349843,
100357,Richardson at Richmond (WB),48.417552,-123.33181,
100358,Douglas at Finlayson (NB),48.445493,-123.370815,
100359,Finlayson at Blanshard (WB),48.445523,-123.36769,
100360,Ross at Wildwood (WB),48.41092,-123.334237,
100361,Oak Bay at Jubilee (EB),48.426395,-123.3319,
100362,Burnside Rd E at Napier (EB),48.445446,-123.376613,
100363,Gorge Rd E at Balfour (EB),48.443418,-123.386488,
100364,Lampson at Wychbury (NB),48.425758,-123.407941,
100365,Esquimalt at Lampson (EB),48.429448,-123.406388,
100366,Lampson at Fernhill (NB),48.431271,-123.405149,
100367,Lampson at Bewdley (NB),48.423766,-123.408524,
100368,Haultain at Belmont (EB),48.436091,-123.339421,
100369,Gorge Rd E at Balfour (WB),48.443594,-123.386813,
100370,Lampson at Wychbury (SB),48.425114,-123.408319,
100371,Lampson at Munro (NB),48.42201,-123.409067,
100372,Lampson at Old Esquimalt (NB),48.43339,-123.403667,
100373,Lampson at Lyall (SB),48.426767,-123.407835,
100374,Lampson at Bewdley (SB),48.42313,-123.408921,
100375,Richardson at Richmond (EB),48.417682,-123.330918,
100376,Lampson at Norma (SB),48.431081,-123.4056703,
100377,Ross at Wildwood (EB),48.410795,-123.333601,
100378,Finlayson at Glasgow (EB),48.446016,-123.362767,
100379,Lampson at Old Esquimalt (SB),48.43398,-123.403631,
100380,Burnside Rd E at Alpha (WB),48.446136,-123.377775,
100381,Lampson at Munro (SB),48.421757,-123.409362,
100382,Oak Bay at Belcher (WB),48.426541,-123.332785,
100383,Fairfield at Robertson (WB),48.415103,-123.332025,
100384,Fort at Leighton (EB),48.428549,-123.332382,
100385,Hillside at Cedar Hill (EB),48.441031,-123.345439,
100386,Craigflower at Carrie (EB),48.440101,-123.395387,
100387,Esquimalt at Lampson (WB),48.429745,-123.407483,
100388,Craigflower at Carrie (WB),48.440264,-123.395422,
100389,Quadra at Finlayson (SB),48.445953,-123.361164,
100390,Fairfield at Richmond (EB),48.415281,-123.330933,
100391,Haultain at Forbes (WB),48.436187,-123.33836,
100392,Finlayson at Glasgow (WB),48.44621,-123.362159,
100393,Richardson at Gonzales (SB),48.418348,-123.330067,
100394,Douglas at Herald (NB),48.429953,-123.364382,
100395,Gorge Rd E at Harriet (EB),48.443765,-123.389705,
100396,Hillside at Cedar Hill (WB),48.441249,-123.344687,
100397,Oak Bay at Richmond (EB),48.426386,-123.329869,
100398,Gorge Rd E at Harriet (WB),48.44388,-123.389637,
100399,Burnside Rd E at Alpha (EB),48.446668,-123.37917,
100400,Haultain at Victor (EB),48.436049,-123.336931,
100401,Quadra at Finlayson (NB),48.446823,-123.36117,
100402,Fort at Ashgrove (WB),48.429109,-123.331372,
100403,Shelbourne at Denman (SB),48.432741,-123.333487,
100404,Munro at Kinver (EB),48.421721,-123.410952,
100405,Uvic Exchange Bay G,48.46624315,-123.3088518,800001
100406,Oak Bay at Richmond (WB),48.426528,-123.330642,
100407,Richmond at Leighton (SB),48.428133,-123.330316,
100408,Lampson at Wurtele (SB),48.437048,-123.402614,
100409,Haultain at Shakespeare (WB),48.43616,-123.33652,
100410,Crescent at Richmond (WB),48.411738,-123.330629,
100411,Shelbourne at Denman (NB),48.432807,-123.333272,
100412,Crescent at Richmond (EB),48.411664,-123.330495,
100413,Kiwanis at Cedar Hill (SB),48.44363769,-123.3480041,
100414,Burnside Rd E at Washington (WB),48.447233,-123.380018,
100415,Munro at Kinver (WB),48.421958,-123.411801,
100416,Craigflower at Arcadia (EB),48.44076,-123.39917,
100417,Craigflower at Arcadia (WB),48.440747,-123.398572,
100418,Lampson at Ellery (NB),48.437575,-123.402232,
100419,Lampson at Colville (SB),48.43854,-123.402105,
100420,Cedar Hill at Hipwood (NB),48.443884,-123.347515,
100421,Esquimalt at Fernhill (EB),48.42992,-123.410175,
100422,Finlayson at Somerset (WB),48.446921,-123.356466,
100424,Finlayson at Blackwood (EB),48.446922,-123.35555,
100425,Richardson at Lawndale (EB),48.419512,-123.327626,
100426,Cook at Summit (SB),48.445062,-123.349224,
100427,Fort at Richmond (EB),48.429692,-123.32967,
100428,Haultain at Scott (EB),48.436053,-123.334599,
100430,Esquimalt at Fernhill (WB),48.43009,-123.410149,
100431,Haultain at Scott (WB),48.436175,-123.334839,
100432,Foul Bay at Fairfield (SB),48.415759,-123.327667,
100433,Shelbourne at Haultain (SB),48.435479,-123.333794,
100434,Richmond at Birch (NB),48.430108,-123.329877,
100436,Foul Bay at Fairfield (NB),48.415854,-123.327472,
100437,Richardson at Moss Park (WB),48.41986563,-123.3267315,
100438,Fort at Bank (WB),48.429897,-123.32956,
100439,Foul Bay at Quixote (NB),48.41424,-123.327702,
100440,Cedar Hill at Hibberson (SB),48.444762,-123.346908,
100441,Richmond at Coronation (SB),48.431359,-123.329778,
100442,Hillside at Gosworth (EB),48.442263,-123.341654,
100443,Cook at Summit (NB),48.445607,-123.349158,
100444,Munro at Plaskett (NB),48.422522,-123.413771,
100445,Quadra at Tolmie (SB),48.448749,-123.361938,
100446,Burnside Rd E at Eldon (EB),48.448134,-123.382181,
100447,Munro at Plaskett (SB),48.42234,-123.413824,
100448,Hillside at Gosworth (WB),48.44239,-123.34175,
100449,Cedar Hill at Hibberson (NB),48.444969,-123.346512,
100450,Shelbourne at Haultain (NB),48.436482,-123.33355,
100451,Richmond at Denman (NB),48.431969,-123.329396,
100452,Burnside Rd E at Balfour (WB),48.44848604,-123.3825382,
100453,Oak Bay at Chamberlain (EB),48.426389,-123.326727,
100454,Douglas at Cloverdale (SB),48.449639,-123.373744,
100455,Quadra at Tolmie (NB),48.449313,-123.361692,
100456,Douglas at Cloverdale (NB),48.449857,-123.373511,
100457,Craigflower at Lampson (WB),48.441563,-123.401273,
100458,Oak Bay at Davie (WB),48.426523,-123.32653,
100459,Gorge Rd W at Wascana (EB),48.445247,-123.392976,
100460,Crescent at Foul Bay (WB),48.412087,-123.327079,
100461,Shelbourne at Kings (SB),48.43756,-123.333723,
100462,Gorge Rd W at Wascana (NB),48.445765,-123.393455,
100463,Craigflower at Lampson (EB),48.441405,-123.401304,
100464,Colville at MacLeod (EB),48.438692,-123.405387,
100466,Colville at MacLeod (WB),48.438802,-123.405422,
100467,Fraser at Wychbury (NB),48.42653,-123.414407,
100468,Richmond at Bay (SB),48.433392,-123.329339,
100469,Fraser at Lyall (SB),48.427676,-123.413922,
100470,Esquimalt at Fraser (WB),48.43026464,-123.4132732,
100471,Esquimalt at Park (EB),48.43007124,-123.4139463,
100472,Munro at Fraser (SB),48.424041,-123.415532,
100473,Lyall at Fraser (WB),48.428171,-123.414092,
100474,Cook at Tovido (SB),48.447471,-123.349804,
100475,Foul Bay at Romney (SB),48.418796,-123.324568,
100476,Tillicum at Craigflower (NB),48.442248,-123.40194,
100477,Foul Bay at Runnymede (NB),48.418993,-123.324086,
100478,Fraser at Wychbury (SB),48.426149,-123.414814,
100479,Richmond at Emerson (NB),48.434059,-123.328998,
100481,Fraser at Bewdley (NB),48.424679,-123.415488,
100482,Crescent at Foul Bay (EB),48.41214774,-123.3280533,
100483,Tillicum at Craigflower (SB),48.441309,-123.402436,
100485,Shelbourne at Kings (NB),48.438519,-123.333459,
100486,Burnside Rd E at Harriet (EB),48.449192,-123.384259,
100487,Finlayson at Cook (EB),48.447802,-123.348586,
100488,Cook at Finlayson (NB),48.448097,-123.349796,
100489,Foul Bay at McNeill (SB),48.420524,-123.323458,
100490,Finlayson at Cook (WB),48.447881,-123.348986,
100491,Craigflower at Tillicum (WB),48.442276,-123.403154,
100492,Craigflower 1030 block (EB),48.4425,-123.404028,
100493,Foul Bay at Quamichan (NB),48.420595,-123.323313,
100495,Harriet at Burnside Rd E (NB),48.449919,-123.384005,
100496,Sooke 5220 block (SB),48.39095,-123.641115,
100497,Cedar Hill at Gosworth (NB),48.446581,-123.344971,
100498,Fort at Lee (WB),48.431454,-123.32615,
100499,Cedar Hill at Gosworth (SB),48.446582,-123.345186,
100500,McNeill at Foul Bay (EB),48.420232,-123.322793,
100501,Tillicum at Gosper (NB),48.44402561,-123.4013598,
100502,Oak Bay at Amphion (EB),48.426378,-123.324006,
100503,Gorge Rd W at Millgrove (WB),48.446825,-123.39543,
100504,McNeill at Foul Bay (WB),48.420365,-123.322928,
100505,Hillside at Doncaster (WB),48.443564,-123.338807,
100506,Richmond at Adanac (SB),48.435529,-123.32889,
100507,Uvic Exchange Bay H,48.46639431,-123.3086463,800001
100508,Metchosin at Wootton (SB),48.381017,-123.530187,
100509,Tillicum at Gosper (SB),48.443678,-123.401692,
100511,Foul Bay at Edgecliffe (SB),48.422254,-123.322501,
100512,Oak Bay at Amphion (WB),48.42651036,-123.3232962,
100513,Cook at Slater (SB),48.449043,-123.350332,
100514,Hillside at Doncaster (EB),48.443836,-123.337689,
100515,Fort at Lee (EB),48.431559,-123.325086,
100517,Foul Bay at Oak Bay (SB),48.4261976,-123.3228205,
100518,Richmond at Haultain (NB),48.436228,-123.328545,
100519,Lyall at Admirals (WB),48.428337,-123.416685,
100520,Quadra at Inverness (SB),48.451534,-123.361069,
100521,Crescent at King George (EB),48.410647,-123.323903,
100522,Foul Bay at Granite (NB),48.425388,-123.322297,
100523,Burnside Rd W at QuAppelle (WB),48.45036117,-123.3862636,
100524,Colville at Hutchinson (EB),48.438282,-123.410312,
100525,Gorge Rd W at Orillia (WB),48.447328,-123.397157,
100526,Esquimalt at Admirals (EB),48.429832,-123.416585,
100527,Burnside Rd W at Wascana (EB),48.45048,-123.386848,
100528,Admirals at Lyall (SB),48.428427,-123.417112,
100529,Admirals at Esquimalt (NB),48.429466,-123.416888,
100530,Richmond at Kings (SB),48.437543,-123.328469,
100531,Shelbourne at Pearl (SB),48.441706,-123.333517,
100532,Tillicum at Gorge Bridge (NB),48.445784,-123.400475,
100533,Foul Bay at Leighton (SB),48.42857,-123.322731,
100534,Boleskine at Whittier (EB),48.452091,-123.380548,
100535,Boleskine at Douglas (EB),48.452594,-123.376211,
100536,Oak Bay at Foul Bay (EB),48.426393,-123.321757,
100537,Colville at Hutchinson (WB),48.43835197,-123.4108172,
100538,Harriet at Irma (WB),48.451931,-123.38205,
100539,Tillicum at Gorge Bridge (SB),48.445453,-123.400922,
100540,Quadra at Holmes (NB),48.452316,-123.360585,
100541,Finlayson at Cedar Hill (EB),48.448295,-123.344805,
100542,Boleskine at Douglas (WB),48.45273,-123.376388,
100543,Admirals at Esquimalt (SB),48.430257,-123.417032,
100544,Richmond at Kings (NB),48.43772464,-123.3282302,
100545,Esquimalt at Constance (WB),48.42993,-123.41753,
100546,Foul Bay at Milton (NB),48.429212,-123.322509,
100547,Quimper at Crescent (SB),48.40891,-123.323386,
100548,Finlayson at Cedar Hill (WB),48.44843309,-123.3444911,
100549,Shelbourne at Pearl (NB),48.442233,-123.333326,
100550,Foul Bay at Meadow (SB),48.429946,-123.322617,
100551,Douglas at Saanich (SB),48.453211,-123.375885,
100552,McNeill at Falkland (WB),48.420323,-123.320475,
100553,Maplewood at Tolmie (NB),48.450558,-123.350484,
100554,Douglas at Saanich (NB),48.453272,-123.375516,
100556,Foul Bay at Goldsmith (NB),48.430775,-123.322373,
100557,Cedar Hill at North Dairy (SB),48.448884,-123.343724,
100558,McNeill at Falkland (EB),48.420167,-123.31943,
100559,Foul Bay at Cadboro Bay (SB),48.431758,-123.322534,
100561,Fort at Foul Bay (WB),48.432147,-123.322911,
100562,Gorge Rd W at Albina (EB),48.447656,-123.399198,
100563,Cedar Hill at North Dairy (NB),48.448678,-123.343629,
100564,Saanich at Oak (NB),48.453497,-123.37461,
100565,Richmond at Newton (NB),48.439124,-123.327957,
100566,Hillside at Shakespeare (EB),48.444811,-123.335192,
100567,Colville at Intervale (EB),48.437947,-123.413483,
100568,Richmond at Carnarvon (SB),48.439234,-123.328126,
100569,Gorge Rd W at Albina (WB),48.447797,-123.399424,
100570,Admirals at Naden (NB),48.433447,-123.417334,
100571,Saanich at Oak (SB),48.453931,-123.374574,
100572,Burnside Rd W at Millgrove (EB),48.451761,-123.389337,
100573,Cadboro Bay at Bee (EB),48.43224,-123.321641,
100574,Oak Bay at Elgin (WB),48.426582,-123.319604,
100575,Foul Bay at Cadboro Bay (NB),48.432799,-123.322288,
100576,Tillicum at Arnot (NB),48.448283,-123.399751,
100577,Shelbourne at Myrtle (NB),48.443979,-123.333265,
100578,Maplewood at Ocean View (SB),48.451869,-123.350887,
100579,Colville at Veterans (WB),48.43794,-123.414688,
100580,Admirals at Naden (SB),48.433795,-123.417837,
100581,Tillicum at Arnot (SB),48.448037,-123.400292,
100582,Victoria at Windsor (NB),48.42178,-123.318399,
100583,Victoria at McNeill (NB),48.420604,-123.318334,
100584,North Dairy at Wetherby (WB),48.448309,-123.340075,
100585,Craigflower 1110 block (EB),48.444141,-123.407405,
100586,Craigflower 1115 block (WB),48.44417866,-123.4072062,
100587,Burnside Rd W at Millgrove (WB),48.45172316,-123.3889067,
100588,Oak Bay at Yale (EB),48.426444,-123.318547,
100589,Victoria at Pentland (NB),48.419564,-123.317717,
100590,Shelbourne at Hillside (SB),48.445094,-123.333421,
100591,Victoria at Central (NB),48.417082,-123.31785,
100593,Saanich at Blanshard (WB),48.45496,-123.37293,
100594,Esquimalt at Sturdee (EB),48.429663,-123.420813,
100595,Hillside at Shelbourne (WB),48.445455,-123.334038,
100596,Richmond at Allenby (SB),48.441053,-123.327726,
100597,Esquimalt at Foster (WB),48.429662,-123.422023,
100598,Tillicum at Obed (SB),48.449726,-123.398374,
100599,Quadra 3430 block (NB),48.454332,-123.359864,
100600,Saanich at Blanshard (EB),48.455318,-123.371536,
100601,Tillicum at Obed (NB),48.450278,-123.397465,
100602,Foul Bay at Haultain (SB),48.435456,-123.322351,
100603,Maplewood at Oakmount (NB),48.452972,-123.350443,
100604,Obed at Tillicum (WB),48.450256,-123.398305,
100605,Foul Bay at Haultain (NB),48.435643,-123.322152,
100606,Richmond at Allenby (NB),48.441519,-123.327451,
100608,Obed at Tillicum (EB),48.450047,-123.398218,
100609,Blanshard at Saanich (EB),48.455561,-123.372841,
100610,North Dairy at Keats (WB),48.44826764,-123.3372633,
100611,North Dairy at Keats (EB),48.448138,-123.336781,
100612,Hillside Centre Bay 1,48.447568,-123.336479,
100613,Colville at Flag (EB),48.4375881,-123.4168324,
100614,Quadra at Cook (SB),48.455191,-123.359755,
100615,Shelbourne at Hillside (NB),48.446184,-123.33314,
100616,Cadboro Bay at Epworth (EB),48.4327648,-123.3183594,
100617,Gorge Rd W at Gorge View (WB),48.448512,-123.403212,
100618,Hillside at Lansdowne (EB),48.44583,-123.332631,
100619,Tillicum at Maddock Ave W (SB),48.451542,-123.396338,
100620,Burnside Rd W at Orillia (WB),48.453159,-123.391623,
100621,Admirals at Lockley (WB),48.437034,-123.41803,
100622,Oak Bay at Wilmot (EB),48.426447,-123.317017,
100623,Burnside Rd W at Albina (EB),48.453144,-123.392,
100624,Admirals at Colville (EB),48.43694179,-123.4182479,
100625,Foul Bay at Kings (SB),48.437378,-123.322275,
100626,Foul Bay at Kings (NB),48.437559,-123.322061,
100627,Cedar Hill at McRae (NB),48.450962,-123.340883,
100628,Tillicum at Maddock Ave W (NB),48.45222,-123.395259,
100629,Windsor at Hampshire (EB),48.421978,-123.315611,
100630,Maplewood at Camrose (SB),48.454082,-123.350676,
100631,Cedar Hill at McRae (SB),48.450879,-123.341221,
100632,Oak Bay at Hampshire (WB),48.42656195,-123.3157141,
100633,Central at Monterey (WB),48.416651,-123.315247,
100634,Craigflower at Forshaw (WB),48.44542,-123.409733,
100635,Esquimalt at Grafton (EB),48.429358,-123.423434,
100636,Shelbourne at North Dairy (SB),48.447195,-123.333332,
100637,North Dairy at Browning (WB),48.448242,-123.33469,
100638,Colville at Admirals (WB),48.437545,-123.418681,
100639,Cadboro Bay at Epworth (WB),48.432544,-123.320104,
100640,Gorge Rd W at Gorge View (EB),48.448307,-123.403107,
100641,Lansdowne at Aldridge (WB),48.446234,-123.331148,
100642,Vernon at Nigel (WB),48.456896,-123.372052,
100643,Saanich at Calumet (SB),48.456791,-123.36977,
100644,Craigflower at Forshaw (EB),48.445587,-123.410433,
100645,Saanich at Darwin (NB),48.45716401,-123.3692576,
100646,Richmond at Forrester (SB),48.444055,-123.327077,
100647,Quadra at Tattersall Dr (SB),48.457855,-123.360019,
100648,Tillicum at Burnside Rd W (SB),48.453339,-123.394363,
100649,Obed at Bodega (EB),48.451289,-123.400606,
100650,Blanshard at Ravine (EB),48.457007,-123.376007,
100651,Canteen at Esquimalt (SB),48.428899,-123.424607,
100652,Richmond at Cochrane (NB),48.444245,-123.326841,
100653,Lansdowne at Service (EB),48.446068,-123.327835,
100654,Windsor at Monterey (EB),48.421962,-123.313883,
100655,Quadra at Tattersall Dr (NB),48.457883,-123.359808,
100656,Shelbourne at North Dairy (NB),48.448423,-123.3331,
100657,Oak Bay at Monterey (EB),48.426408,-123.314579,
100658,Gorge Rd W at Inez (EB),48.449134,-123.406171,
100659,Foul Bay at Townley (SB),48.44005,-123.322152,
100661,Maplewood at Derby (NB),48.455641,-123.35081,
100662,Burnside Rd W at Tillicum (SB),48.454609,-123.393565,
100663,Gorge Rd W at Inez (WB),48.449234,-123.406384,
100664,Cadboro Bay at Eastdowne (WB),48.433567,-123.317083,
100665,Foul Bay at Townley (NB),48.44052,-123.321917,
100666,Saanich at Leslie (NB),48.45812135,-123.3687792,
100668,Obed at Bodega (WB),48.451949,-123.401608,
100669,Monterey at Woodlawn (NB),48.428499,-123.313913,
100670,Burnside Rd W at Tillicum (NB),48.455158,-123.393512,
100671,Tillicum Mall Bay 1,48.454288,-123.396381,
100673,Cadboro Bay at Eastdowne (EB),48.433456,-123.315898,
100674,Monterey at Woodlawn (SB),48.42848423,-123.3141139,
100675,Saanich at Swan (SB),48.458572,-123.368851,
100676,Cedar Hill at Oakcrest (NB),48.45297,-123.340115,
100677,Cedar Hill at Oakcrest (SB),48.453145,-123.340237,
100678,Richmond at Watson (SB),48.44553718,-123.3267526,
100679,Vernon at Ravine (WB),48.458942,-123.376479,
100680,Lansdowne at Frechette (WB),48.446208,-123.327561,
100681,Foul Bay at Neil (SB),48.441704,-123.322068,
100682,Maplewood at Astoria (SB),48.456597,-123.350971,
100683,Craigflower at Garthland (WB),48.446593,-123.41219,
100684,Carey at Harriet (NB),48.4583299,-123.3792462,
100685,Shelbourne at McRae (SB),48.450074,-123.333248,
100686,Oak Bay at Oliver (EB),48.426359,-123.312304,
100687,Craigflower at Garthland (EB),48.446526,-123.412361,
100688,Maplewood at Pike (NB),48.45706,-123.350842,
100689,Foul Bay at Neil (NB),48.442216,-123.321811,
100690,Windsor at St Patrick (EB),48.421942,-123.311373,
100691,Admirals at Coles (EB),48.438089,-123.422265,
100692,Admirals at Coles (WB),48.438213,-123.422226,
100693,Esquimalt at Lyall (EB),48.428414,-123.428096,
100694,Central at St Patrick (WB),48.416657,-123.311557,
100695,Gorge Rd W at Dysart (EB),48.450159,-123.409108,
100696,Vernon at Carey (EB),48.458864,-123.37945,
100697,Shelbourne at McRae (NB),48.450878,-123.333042,
100698,Lyall at Moresby (WB),48.427636,-123.428139,
100699,Gorge Rd W at Heath (WB),48.450172,-123.408724,
100700,Obed 500 block (EB),48.45283,-123.403681,
100701,Oak Bay at York (WB),48.426469,-123.311393,
100702,Foul Bay at Forrester (SB),48.443333,-123.321958,
100703,Parklands at Cunningham (EB),48.441529,-123.420339,
100704,Obed 500 block (WB),48.452832,-123.403358,
100706,Kingsmill at Alexander (WB),48.442654,-123.419699,
100707,Cedar Hill at Derby (SB),48.454681,-123.33982,
100708,St Ann at Cranmore (SB),48.431048,-123.312177,
100709,Trans-Canada at Tillicum (WB),48.45802062,-123.3894924,
100710,Trans-Canada at Tillicum (EB),48.457891,-123.389889,
100711,Cedar Hill at Derby (NB),48.455038,-123.339516,
100712,Richmond at Argyle (NB),48.447408,-123.326124,
100713,Quadra at Rock (SB),48.459953,-123.36054,
100714,Newport at St David (EB),48.425944,-123.309949,
100715,Windsor at Transit (EB),48.421927,-123.309413,
100716,Burnside Rd W 350 block (NB),48.456893,-123.394587,
100717,Foul Bay at Cochrane (NB),48.444576,-123.321746,
100718,Cadboro Bay at Dalhousie (SB),48.43453,-123.313154,
100719,Richmond at Argyle (SB),48.447214,-123.326379,
100720,St Ann at Cranmore (NB),48.431518,-123.311668,
100721,Central at Transit (WB),48.41663,-123.309221,
100722,Saanich at Pendene (SB),48.460714,-123.369084,
100723,Kingsmill at Parklands (SB),48.441733,-123.42209,
100724,Saanich at Pendene (NB),48.461061,-123.369003,
100725,Foul Bay at Watson (SB),48.445455,-123.321877,
100726,Carey at Huxley (SB),48.459629,-123.381194,
100727,Shelbourne at Knight (SB),48.452925,-123.333192,
100728,Parklands at McAdam (EB),48.440542,-123.42354,
100729,Carey at Huxley (NB),48.460253,-123.381739,
100731,Shelbourne at Knight (NB),48.453087,-123.333002,
100732,Blenkinsop at Tattersall (SB),48.459089,-123.350999,
100733,Admirals at Parklands (SB),48.439326,-123.424685,
100734,Newport at Beresford (NB),48.425423,-123.308856,
100735,Obed at Dysart (WB),48.453984,-123.405591,
100736,Blenkinsop at Tattersall (NB),48.459216,-123.350806,
100737,Cadboro Bay at Woodhouse (NB),48.43587,-123.312879,
100738,Gorge Rd W at Austin (EB),48.45053,-123.411877,
100739,Cadboro Bay at Woodhouse (SB),48.436614,-123.31303,
100740,Gorge Rd W at Austin (WB),48.450554,-123.412237,
100741,Uvic Exchange Bay M,48.46593107,-123.3084281,800001
100742,Newport at Transit (SB),48.424614,-123.308033,
100743,Burnside Rd W at Trans-Canada (SB),48.458208,-123.394938,
100744,Cowper at Dysart (EB),48.453575,-123.406692,
100745,St Ann at Bowker (NB),48.432981,-123.310715,
100746,Quadra at Rock (NB),48.46046,-123.360461,
100747,Cadboro Bay at Kinross (NB),48.437264,-123.312785,
100748,Bowker at Lulie (WB),48.43307,-123.310118,
100749,Carey at Seaton (SB),48.461218,-123.383251,
100750,Richmond at Ernest (SB),48.45000154,-123.325621,
100751,Richmond at Ernest (NB),48.449796,-123.325352,
100752,Foul Bay at Camosun College Main Entrance (SB),48.447457,-123.321369,
100753,Cedar Hill at Rowan (SB),48.45717,-123.33919,
100754,Craigflower at Aral (NB),48.449636,-123.420417,
100755,Craigflower at Dellwood (EB),48.447816,-123.415664,
100756,Cadboro Bay at Estevan (NB),48.438509,-123.312638,
100757,Newport at Windsor (NB),48.423837,-123.306686,
100758,Cadboro Bay at Pacific (SB),48.438805,-123.312806,
100759,Saanich at Lodge (SB),48.46275729,-123.3680878,
100760,Saanich at Lodge (NB),48.46388823,-123.3676062,
100761,Shelbourne at Derby (NB),48.454748,-123.332958,
100762,Admirals at Luscombe (SB),48.440419,-123.426171,
100763,Foul Bay at Camosun College Main Entrance (NB),48.447995,-123.320341,
100764,Central at Byng (WB),48.416546,-123.306317,
100765,Newport at Windsor (SB),48.423294,-123.306228,
100766,Carey at Seaton (NB),48.461704,-123.383605,
100767,Westhills Exchange Bay B,48.44617936,-123.5330906,
100768,Cedar Hill at Rowan (NB),48.457601,-123.338872,
100769,Windsor at Newport (EB),48.42375,-123.306048,
100770,Gorge Rd W at Wyndeatt (EB),48.450902,-123.414404,
100771,Quadra at Lodge (SB),48.46247,-123.359976,
100772,Cowper at Austin (WB),48.454559,-123.408841,
100773,Cadboro Bay at Harlow (SB),48.440042,-123.312675,
100774,Cowper at Austin (EB),48.454407,-123.40887,
100775,Richmond at Woodley (SB),48.45209772,-123.3263825,
100776,Admirals at Caroline (NB),48.441037,-123.42673,
100777,Cadboro Bay at Harlow (NB),48.44000774,-123.3124762,
100778,Richmond at Woodley (NB),48.452258,-123.326234,
100779,Gorge Rd W at Colquitz (WB),48.451457,-123.4152,
100780,Carey at Diamond (SB),48.462389,-123.384776,
100781,Shelbourne at Cedar (SB),48.455842,-123.333129,
100782,Quadra at Lodge (NB),48.463088,-123.359493,
100783,Beach at Bowker (SB),48.432167,-123.306842,
100784,Richmond at Knight (SB),48.453147,-123.326757,
100785,Carey at Diamond (NB),48.462804,-123.385011,
100786,Central at Newport (WB),48.416489,-123.304243,
100787,Beach at Bowker (NB),48.432385,-123.306482,
100788,Newport at Orchard (SB),48.421621,-123.303994,
100789,Blenkinsop at Judge (SB),48.46214855,-123.3502387,
100790,Blenkinsop at Judge (NB),48.46226706,-123.3500627,
100791,Newport 840 block (SB),48.418291,-123.303799,
100792,Cadboro Bay at Neil (NB),48.442155,-123.312213,
100793,Richmond at Mayfair (NB),48.453899,-123.326985,
100794,Nottingham at Thompson (WB),48.441324,-123.311882,
100795,Craigflower at Aral (SB),48.449156,-123.420051,
100796,Newport at Margate (SB),48.420414,-123.303282,
100797,Interurban at Dumeresq (NB),48.462352,-123.395343,
100798,Shelbourne at Rowan (NB),48.45721,-123.332917,
100799,Craigflower at Rankin (WB),48.448379,-123.417386,
100800,Oak Bay Marina,48.423675,-123.302917,
100801,Beach at Dalhousie (SB),48.433579,-123.305853,
100802,Musgrave at Thompson (SB),48.438119,-123.308092,
100803,Cowper at Colquitz (WB),48.455632,-123.411291,
100804,Gorge Rd W at Inlet (EB),48.452225,-123.417605,
100805,Burnside Rd W at Admirals (NB),48.460347,-123.399633,
100806,Carey at Kent (SB),48.46367057,-123.3864176,
100807,Thompson at Musgrave (NB),48.438131,-123.30846,
100808,Mayhew at Dufferin (EB),48.439836,-123.30934,
100809,Cowper at Colquitz (EB),48.455604,-123.411914,
100810,Burnside Rd W at Rolston (SB),48.46062298,-123.400266,
100811,Shelbourne at Pear (SB),48.45823,-123.333107,
100812,Gorge Rd W at Rockwell (WB),48.452451,-123.417799,
100813,Cedar Hill at Church (SB),48.460215,-123.338297,
100814,Beach at Dalhousie (NB),48.434377,-123.304983,
100815,Estevan at Dunlevy (EB),48.437175,-123.306885,
100816,Cedar Hill at Church (NB),48.460164,-123.338116,
100817,Trans-Canada at McKenzie (WB),48.459511,-123.4032,
100818,Westhills Exchange Bay A,48.44628282,-123.5332986,
100819,Admirals at Seenupin (NB),48.444394,-123.427875,
100820,Richmond at Cedar (SB),48.456065,-123.328287,
100821,Estevan at Dunlevy (WB),48.43733,-123.30695,
100822,Richmond at Cedar (NB),48.456276,-123.328189,
100823,Admirals at Thomas (SB),48.443657,-123.428535,
100824,Nottingham at Burdick (WB),48.442108,-123.310299,
100825,Trans-Canada at McKenzie (EB),48.459353,-123.403773,
100826,Foul Bay at University (WB),48.449701,-123.317958,
100827,Foul Bay at University (EB),48.449538,-123.318004,
100828,Quadra at Hulford (SB),48.465688,-123.361184,
100829,Shelbourne at Pear (NB),48.458814,-123.332871,
100830,Admirals at Cemetery (NB),48.447101,-123.426296,
100831,Saanich at Greenridge (SB),48.46610342,-123.3686666,
100832,Admirals at Hallowell (SB),48.44729816,-123.4265588,
100833,Richmond at Donnelly (SB),48.457354,-123.328968,
100834,Glanford at Jolly (SB),48.466266,-123.387898,
100835,Blenkinsop at Union (SB),48.464586,-123.350246,
100836,Saanich at Greenridge (NB),48.466502,-123.368869,
100837,Admirals at Cowper (EB),48.456219,-123.413604,
100838,Estevan at Lincoln (EB),48.436365,-123.304479,
100839,Carey at Ralph (WB),48.464922,-123.388116,
100840,McKenzie at Burnside Rd W (NB),48.461531,-123.402633,
100841,Burnside Rd W at Biscoe (WB),48.461827,-123.401795,
100842,Veteran's Memorial Pkwy at Langford Pkwy (NB),48.44098433,-123.5025436,
100843,Burnside Rd W at Biscoe (EB),48.46163017,-123.4017396,
100844,Richmond at Kingsberry (NB),48.458117,-123.329142,
100845,McKenzie at Burnside Rd W (SB),48.46155,-123.402899,
100846,Gorge Rd W at Rockwell (EB),48.453005,-123.419403,
100847,Estevan at Beach (WB),48.436326,-123.304012,
100848,Blenkinsop at Union (NB),48.465213,-123.349997,
100849,Admirals at Gorge (EB),48.453544,-123.420391,
100850,Uplands at Dewdney (EB),48.444293,-123.309457,
100852,Admirals at Murray (EB),48.455,-123.417707,
100853,Quadra at Reynolds (NB),48.466811,-123.361896,
100854,Borden at Reynolds (SB),48.466928,-123.360239,
100855,Interurban at Columbine (SB),48.464023,-123.397102,
100856,Craigflower at Island (EB),48.450567,-123.423985,
100857,Admirals at Murray (WB),48.454705,-123.418567,
100858,Uvic Exchange Bay L,48.4658137,-123.3085715,800001
100859,Craigflower at Island (WB),48.45076006,-123.4240726,
100860,Interurban at Columbine (NB),48.464159,-123.397026,
100861,Richmond at Poplar (SB),48.459506,-123.329982,
100862,Cedar Hill at Cedar Hill Cross (NB),48.462044,-123.337307,
100863,Cedar Hill at Cedar Hill Cross (SB),48.462196,-123.337391,
100864,Henderson at Dundrum (NB),48.451291,-123.315993,
100865,Carey at Columbine (EB),48.465756,-123.39047,
100866,Carey at Ralph (NB),48.46430286,-123.3871625,
100867,Shelbourne at Cedar Hill Cross (SB),48.460968,-123.333062,
100868,Cedar Hill Cross at Merriman (WB),48.464199,-123.342373,
100869,Richmond at Poplar (NB),48.45971,-123.329884,
100870,Nottingham at Dorset (WB),48.443554,-123.307389,
100871,Uvic Exchange Bay O,48.46564173,-123.3086486,800001
100872,Mckenzie Offramp (SB),48.46743936,-123.3821281,
100873,Carey at Columbine (WB),48.465921,-123.390492,
100874,Cedar Hill Cross at Synod (WB),48.46324051,-123.3386208,
100875,Mckenzie Onramp (NB),48.467774,-123.379012,
100876,McKenzie at Glanford (EB),48.466918,-123.386813,
100877,McKenzie 660 block (EB),48.467507,-123.382249,
100878,Uvic Exchange Bay P,48.46572012,-123.3084254,800001
100879,Cedar Hill Cross at Epsom (WB),48.465486,-123.345623,
100880,Blenkinsop at Downham (SB),48.466483,-123.349978,
100881,Outlook at Aldersmith (SB),48.447509,-123.427868,
100882,McKenzie at Carey (EB),48.466461,-123.390561,
100883,McKenzie at Douglas (EB),48.468061,-123.379382,
100884,McKenzie 700 block (WB),48.467468,-123.384596,
100885,Quadra at Greenridge (SB),48.46845,-123.363443,
100886,Cedar Hill Cross at Marjean (WB),48.466243,-123.347704,
100887,McKenzie at Glanford (WB),48.466893,-123.389189,
100888,Shelbourne at Cedar Hill Cross (NB),48.46157,-123.332841,
100889,Uvic Exchange Bay Q,48.46585326,-123.3082626,800001
100890,McKenzie at Douglas (WB),48.468441,-123.378422,
100891,Saanich at McKenzie (SB),48.468895,-123.371041,
100892,Saanich at McKenzie (NB),48.469063,-123.370882,
100893,McKenzie at Nelthorpe (EB),48.468841,-123.373544,
100894,Glanford at Melba (NB),48.467633,-123.388072,
100895,Quadra at Greenridge (NB),48.468738,-123.363412,
100896,Island at Shoreline (NB),48.451743,-123.425609,
100897,Henderson at Kendal (SB),48.452659,-123.315498,
100898,Shelbourne at Broadmead (SB),48.462437,-123.332994,
100899,McKenzie at Carey (WB),48.466505,-123.393496,
100900,McKenzie at Nelthorpe (WB),48.468913,-123.374232,
100901,Cedar Hill Cross at Palo Alto (EB),48.460366,-123.327893,
100902,Burnside Rd W at Marigold (SB),48.463331,-123.404509,
100903,Burnside Rd W at Marigold (NB),48.463419,-123.404381,
100904,Uvic Exchange Bay R,48.46602128,-123.3081162,800001
100905,Superior St farside Oswego St (WB),48.41976038,-123.3765812,
100906,Carey at McKenzie (SB),48.4668278,-123.3927091,
100907,Carey at McKenzie (NB),48.467127,-123.392798,
100908,Sunheights at Sun Estates (WB),48.41528095,-123.5138222,
100909,Cedar Hill Cross at Margot (EB),48.468307,-123.352792,
100910,Island 120 block (EB),48.452532,-123.428528,
100911,Cedar Hill Cross at Iona (WB),48.460538,-123.326958,
100912,Uplands at Cotswold (NB),48.446465,-123.307365,
100913,Henderson 3460 block (NB),48.453538,-123.314852,
100914,Nottingham at Devon (WB),48.44459434,-123.3053132,
100915,Douglas at Blackberry (NB),48.469403,-123.379273,
100916,Blenkinsop at Moorgreen (NB),48.467932,-123.349862,
100917,Fifth at Malaview (SB),48.65669174,-123.4004339,
100918,McKenzie at Quadra (WB),48.469925,-123.366001,
100919,McKenzie at Quadra (EB),48.470043,-123.363899,
100920,Burnside Rd W at Grange (EB),48.463065,-123.409744,
100921,Borden at McKenzie (SB),48.469362,-123.360957,
100922,Cedar Hill at Mortimer (NB),48.465199,-123.336089,
100923,Quadra at McKenzie (WB),48.470448,-123.365039,
100924,Interurban at Marigold (SB),48.466397,-123.401255,
100925,Quadra at McKenzie (EB),48.470475,-123.36546,
100926,McKenzie at Borden (EB),48.470406,-123.360708,
100927,McKenzie at Borden (WB),48.47039,-123.362146,
100928,Burnside Rd W at Grange (WB),48.463139,-123.410592,
100929,Cedar Hill Cross at Astra (EB),48.47023056,-123.3566378,
100930,Esquimalt at Harbour (EB),48.42810228,-123.375082,
100931,Shelbourne at Mortimer (SB),48.46465,-123.332946,
100932,Henderson at Avondale (SB),48.455285,-123.314399,
100933,Shelbourne at Mortimer (NB),48.464744,-123.332697,
100936,Cotswold at Weald (EB),48.44689313,-123.3043773,
100937,Henderson at Avondale (NB),48.455451,-123.314248,
100938,Interurban at Marigold (NB),48.467073,-123.401639,
100939,Island 130 block (WB),48.45270343,-123.428907,
100940,Glanford at Kenneth (NB),48.470058,-123.388758,
100941,Esquimalt at Harbour (WB),48.42823548,-123.3750475,
100942,Cedar Hill Cross at Mayfair (WB),48.460633,-123.322069,
100943,Douglas at Sanctuary (WB),48.471073,-123.380987,
100944,Cedar Hill Cross at Gordon Head (EB),48.460488,-123.321683,
100945,Glanford at OConnell (SB),48.470223,-123.389005,
100946,Superior farside Montreal (WB),48.42114663,-123.3794542,
100947,Lansdowne at Ripon (WB),48.44441,-123.301157,
100948,Cedar Hill at Garnet (SB),48.466655,-123.335913,
100949,Burnside Rd W at Heritage (WB),48.463567,-123.412531,
100950,Henderson at Frederick Norris (SB),48.45778,-123.315851,
100951,Henderson at Frederick Norris (NB),48.457904,-123.315678,
100952,Jimmy at Stautw (NB),48.58837035,-123.3786772,
100953,McKenzie at Century (EB),48.471431,-123.354329,
100954,Douglas farside Superior (SB),48.41823049,-123.3658444,
100955,McKenzie at Century (WB),48.471527,-123.354823,
100956,Cedar Hill Cross 2000 block (EB),48.459446,-123.317931,
100957,McKenzie at Oakwinds (EB),48.468576,-123.339356,
100958,Carey at Norwood (NB),48.469743,-123.395687,
100959,McKenzie at Oakwinds (WB),48.468791,-123.340214,
100960,Cedar Hill Cross 2010 block (WB),48.459495,-123.317615,
100961,Blenkinsop at Lonsdale (NB),48.471398,-123.350912,
100962,Helmcken at Burnside Rd W (EB),48.468034,-123.424875,
100963,Carey at Tait (SB),48.46965958,-123.3958619,
100964,McKenzie at Long Gun (SB),48.469767,-123.342431,
100965,Garnet at Cedar Hill (WB),48.467815,-123.334958,
100966,McKenzie at Blenkinsop (WB),48.471967,-123.351807,
100967,McKenzie at Blenkinsop (EB),48.471885,-123.350458,
100968,Midland 3210 block (NB),48.447681,-123.301377,
100969,McKenzie 1420 block (NB),48.470487,-123.342991,
100970,Shelbourne at Garnet (NB),48.467193,-123.332633,
100971,McKenzie at Cedar Hill (EB),48.468548,-123.334826,
100972,McKenzie at Shelbourne (WB),48.468731,-123.333474,
100973,McKenzie 1410 block (SB),48.470862,-123.343904,
100974,Quadra at Saanich (SB),48.473283,-123.370364,
100975,McKenzie at Braefoot (EB),48.471738,-123.346414,
100976,Glanford at Tait (NB),48.471974,-123.389325,
100977,Quadra at Saanich (NB),48.47339306,-123.3702514,
100978,Burnside Rd W at Belgrave (WB),48.46517433,-123.4153202,
100979,McKenzie at Braefoot (WB),48.472158,-123.347556,
100980,Shelbourne at Garnet (SB),48.468029,-123.332849,
100981,Glanford at Agnes (SB),48.472641,-123.389688,
100982,McKenzie 1400 block (WB),48.471596,-123.34464,
100983,Foul Bay nearside Beaven (SB),48.41424535,-123.3279295,
100984,Interurban at Hyacinth (SB),48.469447,-123.403753,
100985,McKenzie at Cedar Hill (WB),48.468759,-123.335872,
100986,Lansdowne at Norfolk (WB),48.444501,-123.296967,
100987,Interurban at Hyacinth (NB),48.469658,-123.403687,
100988,McKenzie at Shelbourne (EB),48.468518,-123.332052,
100989,Burnside Rd W at Wilkinson (WB),48.465479,-123.41633,
100990,Wilkinson at Burnside Rd W (SB),48.465607,-123.415889,
100991,Ring at West Campus (SB),48.461916,-123.316041,
100992,Wilkinson at Burnside Rd W (NB),48.466357,-123.415105,
100993,Burnside Rd W at Mildred (EB),48.465483,-123.417166,
100994,Shelbourne at McKenzie (NB),48.469318,-123.332614,
100995,Shelbourne 3970 block (SB),48.470554,-123.33281,
100996,Douglas at Rogers (NB),48.474979,-123.383484,
100997,Midland 3450 block (NB),48.451958,-123.301316,
100998,McKenzie at Cedarwood (WB),48.468693,-123.330521,
100999,McKenzie at Cedarwood (EB),48.468539,-123.32801,
101000,Quadra at Ambassador (SB),48.47581,-123.372987,
101001,Island at Plowright (WB),48.45371816,-123.4371621,
101002,Island at Plowright (EB),48.453606,-123.437279,
101003,Cedar Hill at Hopesmore (SB),48.471376,-123.33499,
101004,Quadra at Ambassador (NB),48.476499,-123.373597,
101005,Beach at Ripon (SB),48.451746,-123.299611,
101006,Cedar Hill at Hopesmore (NB),48.471252,-123.334759,
101007,Stautw farside Church (SB),48.58914382,-123.385215,
101008,Interurban at Grange (SB),48.47163,-123.405441,
101009,Carey at Baker (WB),48.474018,-123.397083,
101010,Glanford at Baker (SB),48.475191,-123.390385,
101011,Ring at McGill (WB),48.463688,-123.316338,
101012,Carey at Baker (EB),48.473952,-123.397291,
101013,Beach at Lansdowne (SB),48.446479,-123.294351,
101014,Glanford at Baker (NB),48.475342,-123.390266,
101015,Wilkinson at Tulip (NB),48.468829,-123.413979,
101016,Burnside Rd W at High (WB),48.465969,-123.420656,
101017,Wilkinson at Tulip (SB),48.469083,-123.414119,
101018,Beach at Ripon (EB),48.4508,-123.297862,
101019,McKenzie at Larchwood (WB),48.468677,-123.32507,
101020,McKenzie at Fleet (EB),48.46853277,-123.3236143,
101021,Beach at Midland (SB),48.454464,-123.300855,
101022,Interurban at Chesterfield (NB),48.47247652,-123.4059011,
101023,Beach at Humber (SB),48.448879,-123.294732,
101024,Beach at Midland (NB),48.454618,-123.300645,
101025,Helmcken at Parkcrest (NB),48.459931,-123.433058,
101026,Midwood at Helmcken (EB),48.45850893,-123.4350466,
101027,Quadra at Rogers (SB),48.477773,-123.375402,
101028,Shelbourne at Glencraig (SB),48.47231,-123.332761,
101029,Mt Newton Cross Rd at Church (NB),48.59111518,-123.3845631,
101030,Wilkinson 3930 block (NB),48.470726,-123.412221,
101031,Helmcken at Werra (SB),48.45986795,-123.4333827,
101032,Helmcken at Caton (WB),48.458475,-123.435452,
101033,Burnside Rd W at Eaton (EB),48.466792,-123.422716,
101034,Quadra at Rogers (NB),48.478422,-123.375962,
101036,Ring at University Dr (NB),48.461767,-123.308348,
101037,McKenzie at Gordon Head (EB),48.468484,-123.320908,
101038,Burnside Rd W at Eaton (NB),48.46711275,-123.4229471,
101039,Shelbourne at Blair (NB),48.473192,-123.332472,
101040,Glanford at Judah (NB),48.477314,-123.3908,
101041,Blair at Birchwood (EB),48.472846,-123.330869,
101042,Glanford at Judah (SB),48.477368,-123.391021,
101043,McKenzie at Gordon Head (WB),48.4687,-123.320887,
101044,Lily at Douglas (EB),48.478184,-123.384468,
101045,Blair at Magdelin (WB),48.472945,-123.33038,
101046,Helmcken at Helmcken Park and Ride (NB),48.46332342,-123.4311526,
101047,Lily at Lark (EB),48.478683,-123.382001,
101048,McCallum Rd AT 799 Block (WB),48.45849822,-123.5048557,
101049,Cedar Hill at Feltham (SB),48.474843,-123.335294,
101050,Island at Stewart (SB),48.455593,-123.440485,
101051,Helmcken at Eltham (NB),48.456413,-123.440477,
101052,Helmcken at Helmcken Park and Ride (SB),48.46329895,-123.4315429,
101053,Cadboro Bay at Vista Bay (NB),48.457375,-123.300197,
101054,Carey at Judah (NB),48.476603,-123.39871,
101055,Helmcken Rd Offramp (EB),48.463406,-123.431635,
101056,Interurban at Meadowview (SB),48.47419387,-123.4074613,
101057,Island at Helmcken (WB),48.456379,-123.441525,
101058,Cadboro Bay at Vista Bay (SB),48.457403,-123.300397,
101059,Carey at Judah (SB),48.47695,-123.399072,
101060,Cedar Hill at Feltham (NB),48.475365,-123.33549,
101061,Interurban at Meadowview (NB),48.474615,-123.407574,
101062,Stautw Rd FS Pullock (SB),48.59026653,-123.3873785,
101063,Helmcken Rd Offramp (WB),48.46450821,-123.4309851,
101064,Helmcken at Westbound TCH Offramp (NB),48.46457687,-123.4304314,
101065,Blair at Carnegie (EB),48.472819,-123.326313,
101066,Blair at Carnegie (WB),48.472947,-123.327067,
101067,Helmcken at Burnside Rd W (NB),48.469164,-123.423294,
101068,Helmcken at Burnside Rd W (WB),48.468241,-123.424698,
101069,Helmcken at Westbound TCH Offramp (SB),48.464556,-123.430846,
101070,Cedar Hill at Craigiewood (SB),48.476595,-123.337273,
101071,Wilkinson at Helen (NB),48.474151,-123.412639,
101072,Cedar Hill at Craigiewood (NB),48.476709,-123.337168,
101073,Wilkinson at Helen (SB),48.473801,-123.412828,
101074,Shelbourne at Feltham (SB),48.475652,-123.33281,
101076,Uvic Exchange Bay A,48.465973,-123.309514,800001
101077,Shelbourne at Feltham (NB),48.475641,-123.332619,
101078,Laval at Larchwood (EB),48.473182,-123.324748,
101079,Cadboro Bay at Bermuda (SB),48.459256,-123.299667,
101080,Watkiss at Helmcken (SB),48.467145,-123.429451,
101081,Watkiss at Helmcken (NB),48.467324,-123.429433,
101083,Laval at Larchwood (WB),48.473301,-123.324913,
101085,Helmcken at Knockan (NB),48.472614,-123.418467,
101086,Quadra at Beckwith (SB),48.481176,-123.378214,
101087,Glanford at Leaside (SB),48.480228,-123.391201,
101088,Helmcken at Knockan (SB),48.472077,-123.418951,
101089,Quadra at Beckwith (NB),48.481376,-123.378118,
101090,Island at Jedburgh (SB),48.457765,-123.443611,
101091,Island at Jedburgh (NB),48.457742,-123.443415,
101092,Carey at Oakridge (SB),48.478724,-123.399516,
101093,Carey at Oakridge (NB),48.478892,-123.39936,
101094,Holland at Helmcken (SB),48.471144,-123.422721,
101095,Helmcken at Lidgate (WB),48.474275,-123.415536,
101096,Holland at Helmcken (NB),48.471175,-123.422534,
101097,Wilkinson at Glen Tara (SB),48.475515,-123.412355,
101098,Glanford at Leaside (NB),48.47998,-123.391116,
101099,Laval at Loyola (EB),48.47313853,-123.3209065,
101100,Cadboro Bay at Killarney (NB),48.460124,-123.298541,
101101,Sinclair at Clarndon (EB),48.465175,-123.305224,
101102,Shelbourne at Torquay (SB),48.477583,-123.333892,
101103,Shelbourne at Torquay (NB),48.477534,-123.333583,
101104,Wilkinson at Glen Tara (NB),48.475852,-123.411835,
101105,Feltham at Lambrick (WB),48.476105,-123.328951,
101106,Laval at Loyola (WB),48.473259,-123.3211,
101107,McKenzie 2160 block (WB),48.468952,-123.312232,
101108,Feltham at Lambrick (EB),48.475959,-123.328008,
101109,Sinclair at Clarndon (WB),48.465472,-123.305389,
101110,Laval 1870 block (EB),48.472177,-123.317407,
101112,Wharf farside Courtney (SB),48.42353588,-123.3694923,
101113,Laval at Gordon Head (WB),48.472304,-123.317054,
101114,Sinclair at Haro (WB),48.464037,-123.30285,
101115,Feltham at Cabot (WB),48.476104,-123.326743,
101116,College at Thetis (SB),48.43670916,-123.4612114,
101117,Cadboro Bay at Sinclair (SB),48.460866,-123.297895,
101118,Holland 3940 block (SB),48.472928,-123.422378,
101119,Hospital Way at Parking Entrance (WB),48.466224,-123.435007,
101120,Glanford at Enterprise (NB),48.482325,-123.389856,
101121,Sinclair at Hobbs (WB),48.461632,-123.29857,
101122,Cedar Hill at Cedarglen (SB),48.480103,-123.339909,
101123,Feltham at Cabot (EB),48.475971,-123.325236,
101124,Holland 3940 block (NB),48.472906,-123.422176,
101125,Belmont at Lascelles (EB),48.437258,-123.461858,
101126,Cadboro Bay at Sinclair (NB),48.461215,-123.297147,
101127,Langford Pkwy AT Attree Ave (WB),48.44317031,-123.5079314,
101128,Glanford at Enterprise (SB),48.482519,-123.389972,
101129,Gordon Head 4000 block (NB),48.472536,-123.315232,
101130,Shelbourne at Cedarglen (SB),48.479576,-123.335421,
101131,Cedar Hill at Cedarglen (NB),48.480815,-123.339515,
101132,Island at Prince Robert (EB),48.459225,-123.445357,
101133,Interurban 4140 block (SB),48.477683,-123.410233,
101134,Ridgebank at Oakridge (NB),48.481076,-123.398973,
101135,Island at Prince Robert (WB),48.459253,-123.445111,
101136,Interurban 4140 block (NB),48.477245,-123.409698,
101137,Feltham at Tyndall (WB),48.476093,-123.323644,
101138,Ridgebank at Springridge (SB),48.481375,-123.398978,
101139,Shelbourne at Cedarglen (NB),48.480099,-123.335596,
101140,Quadra at Caen (SB),48.484043,-123.380278,
101141,Watkiss at Stoneridge (NB),48.466085,-123.438067,
101142,Hastings 1200 block (WB),48.478444,-123.41169,
101143,Hospital Way at Watkiss Way (SB),48.466917,-123.4363,
101144,Hastings 1200 block (EB),48.47829253,-123.4115457,
101145,Watkiss Way at Hospital Way (EB),48.467678,-123.435992,
101146,Quadra at Caen (NB),48.484487,-123.380547,
101147,Watkiss at Stoneridge (SB),48.466199,-123.438143,
101148,Holland at Blue Ridge (SB),48.474849,-123.422009,
101149,Tyndall at Feltham (NB),48.476766,-123.322944,
101150,Holland at Blue Ridge (NB),48.475406,-123.421721,
101151,Cadboro Bay at Maynard (EB),48.461849,-123.294875,
101152,Cadboro Bay at Maynard (WB),48.461948,-123.295104,
101153,Gordon Head at Fairburn (SB),48.473726,-123.314088,
101154,Finnerty at Edgelow (SB),48.469053,-123.305287,
101155,Interurban at Wilkinson (SB),48.479243,-123.411429,
101156,Watkiss at Talcott (EB),48.464826,-123.441663,
101157,Finnerty at Edgelow (NB),48.46935,-123.304679,
101158,Interurban at Wilkinson (NB),48.479699,-123.411587,
101159,Glanford at Lodi (SB),48.484576,-123.388874,
101160,Shelbourne at Arbordale (SB),48.481744,-123.336549,
101161,Vanalman at Ridgebank (NB),48.483336,-123.396344,
101162,Vanalman at Ridgebank (SB),48.483219,-123.396486,
101163,Watkiss at Talcott (WB),48.464757,-123.442929,
101164,Quadra at Chatterton (SB),48.48527,-123.381796,
101165,Glanford at Lodi (NB),48.484629,-123.388633,
101166,Quadra at Chatterton (NB),48.485754,-123.382113,
101167,Cadboro Bay at Cherrilee (EB),48.461267,-123.292392,
101168,Shelbourne 4240 block (NB),48.48232,-123.336417,
101169,Cadboro Bay at Cherrilee (WB),48.461577,-123.292732,
101170,Tyndall at San Pedro (SB),48.478294,-123.323114,
101171,Hastings at Santa Anita (WB),48.479197,-123.415377,
101173,Belmont at Egerton (SB),48.438804,-123.46553,
101174,Gordon Head at Ventura (NB),48.474513,-123.312958,
101175,Holland 4050 block (SB),48.477173,-123.42158,
101176,Hastings at Santa Anita (EB),48.47905,-123.415169,
101177,Langford Pkwy AT Veterans Memorial Pkwy (WB),48.4422268,-123.5038737,
101178,Westshore Pkwy AT Bombardier (NB),48.44410215,-123.5366734,
101179,Holland 4050 block (NB),48.477157,-123.421409,
101181,Cedar Hill at Kenmore (SB),48.483558,-123.339311,
101182,Island at Knollwood (WB),48.460192,-123.450319,
101183,Island at Knollwood (EB),48.459734,-123.449175,
101184,Westshore Pkwy AT Bombardier (SB),48.44369187,-123.5363358,
101185,Westshore Pkwy AT Commander Crt (NB),48.44208802,-123.5355365,
101186,Cadboro Bay at Dawe (EB),48.459811,-123.288898,
101187,Cedar Hill at Kenmore (NB),48.48376,-123.339094,
101188,Emily Carr at Maltwood (EB),48.486901,-123.381078,
101189,Hastings at Delmar (WB),48.479411,-123.417827,
101190,Watkiss at Burnside Rd W (EB),48.464513,-123.445469,
101191,Glanford at Mann (SB),48.486355,-123.387901,
101192,Hastings at Delmar (EB),48.479311,-123.418135,
101193,Arbutus 2400 block (EB),48.469573,-123.301241,
101195,Cadboro Bay at Dawe (WB),48.459818,-123.288553,
101196,Shelbourne at Kenmore (SB),48.483688,-123.33706,
101197,Emily Carr at Maltwood (WB),48.487013,-123.381245,
101198,Glanford at Mann (NB),48.486285,-123.387749,
101199,Vanalman at Parkridge (SB),48.484931,-123.398392,
101200,Vanalman at Parkridge (NB),48.48508953,-123.3982323,
101201,Arbutus at Haro (EB),48.467903,-123.298172,
101202,Arbutus 2400 block (WB),48.469676,-123.301067,
101203,Gordon Head at Graduation (SB),48.475607,-123.311988,
101204,Watkiss at Burnside Rd W (WB),48.465071,-123.446298,
101205,Arbutus at Haro (WB),48.468102,-123.298251,
101206,Arbutus at Rowley (EB),48.466771,-123.296161,
101207,Kenmore at Shelbourne (EB),48.48415,-123.336434,
101208,Arbutus at Hobbs (EB),48.465388,-123.293734,
101209,Belmont at Ocean (SB),48.440513,-123.466698,
101210,Shelbourne at Kenmore (NB),48.484435,-123.336847,
101211,Arbutus at Rowley (WB),48.466856,-123.296024,
101212,Kenmore at Columbia (EB),48.482816,-123.330302,
101213,Kenmore at Torquay (EB),48.481925,-123.326985,
101214,Arbutus at Hobbs (WB),48.465983,-123.294502,
101215,Holland at Hastings (NB),48.479316,-123.420984,
101216,Holland at Hastings (SB),48.479102,-123.421227,
101217,Chatterton 4430 block (NB),48.488409,-123.383025,
101218,Kenmore at Columbia (WB),48.482946,-123.330231,
101219,Kenmore at Majestic (WB),48.484046,-123.334297,
101220,Tyndall at San Pedro (NB),48.479011,-123.322932,
101221,Emily Carr at Crownwood (EB),48.488343,-123.376453,
101222,Kenmore at Torquay (WB),48.482261,-123.327781,
101224,Gordon Head at Lifton (NB),48.476176,-123.311047,
101225,Emily Carr at Crownwood (WB),48.488333,-123.377751,
101226,Arbutus at Sherwood (EB),48.46361576,-123.2904895,
101227,Watkiss at Creed (EB),48.463491,-123.449771,
101228,Watkiss at Creed (WB),48.46369,-123.449676,
101229,Lagoon at Anchorage (WB),48.417659,-123.473446,
101230,Telegraph Bay at Seaview (WB),48.4600877,-123.2860229,
101231,Arbutus at Sherwood (WB),48.463719,-123.290358,
101232,Colwood Exchange Bay A,48.44494834,-123.4661825,800017
101233,Majestic at Prairie (NB),48.484599,-123.333177,
101234,Chatterton 4420 block (SB),48.488203,-123.383177,
101235,Arbutus at Lauder (EB),48.46225,-123.287986,
101236,Tyndall at Francisco (NB),48.481578,-123.322398,
101238,Tyndall at Kenmore (SB),48.481425,-123.322718,
101239,Telegraph Bay at Green Vale (EB),48.46021,-123.285569,
101240,Arbutus at Lauder (WB),48.462393,-123.287967,
101241,Colwood Exchange Bay E,48.44587078,-123.4665084,800017
101242,Emily Carr at Parkwood (SB),48.48962,-123.372942,
101243,Emily Carr at Parkwood (NB),48.48956,-123.372755,
101244,Arbutus at Lexington (SB),48.473735,-123.3039,
101245,Colwood Exchange Bay F,48.44425035,-123.4678913,800017
101246,Gordon Head at Greenlands (SB),48.477223,-123.310065,
101247,Arbutus at Lexington (NB),48.473798,-123.303747,
101248,Majestic at Prairie (SB),48.484904,-123.333176,
101249,Lagoon at Lanai (WB),48.418501,-123.475331,
101250,Shelbourne at Elnido (SB),48.486348,-123.337614,
101251,Island at Wilfert (NB),48.452564,-123.462769,
101252,Watkiss at Marler (EB),48.461931,-123.453786,
101253,Watkiss at Marler (WB),48.462065,-123.453707,
101254,Island at Dukrill (SB),48.45865941,-123.4581077,
101255,Sooke at Goldstream (EB),48.441539,-123.470023,
101256,Gordon Head at Greenlands (NB),48.477243,-123.309801,
101257,West Saanich 4360 block (NB),48.48935,-123.385978,
101258,Vanalman at Northridge (SB),48.48734862,-123.3978885,
101259,Vanalman at Northridge (NB),48.487696,-123.397598,
101260,Island at Wilfert (SB),48.452548,-123.463144,
101261,Sooke at Goldstream (SB),48.441629,-123.470267,
101262,Island at Dukrill (NB),48.458754,-123.457555,
101263,Interurban at Charlton (NB),48.484048,-123.414387,
101264,Interurban at Charlton (SB),48.483989,-123.414572,
101265,Tyndall at San Juan (SB),48.48272,-123.321945,
101266,West Saanich 4380 block (SB),48.490362,-123.386159,
101267,San Juan at Tyndall (EB),48.482748,-123.321317,
101268,Shelbourne at San Juan (NB),48.486902,-123.337361,
101269,Arbutus 2760 block (EB),48.45930113,-123.2816649,
101270,College at Cottonwood Creek (NB),48.435381,-123.47153,
101271,Arbutus at Ebony (SB),48.476815,-123.306245,
101272,San Juan at Chartwell (EB),48.48162,-123.317214,
101273,Lagoon at Goldfinch (WB),48.419085,-123.476593,
101274,Tyndall at San Juan (NB),48.483062,-123.321522,
101275,Goldstream at Sooke (WB),48.442615,-123.471164,
101276,Milburn at Hockering (SB),48.418192,-123.479078,
101277,San Juan at Chartwell (WB),48.481611,-123.316723,
101278,Arbutus at Ebony (NB),48.477616,-123.306445,
101279,Goldstream at Sooke (EB),48.442525,-123.471384,
101280,San Juan at Hillcrest (EB),48.480388,-123.312644,
101281,Vanalman at Mann (NB),48.488919,-123.398637,
101282,San Juan at San Pedro (WB),48.480815,-123.3137,
101283,Vanalman at Mann (SB),48.488927,-123.398797,
101284,Watkiss at Flury (SB),48.462061,-123.456508,
101285,Majestic at Dougall (SB),48.486901,-123.332009,
101286,Arbutus at Juan De Fuca (WB),48.459733,-123.280344,
101287,Arbutus 2790 block (EB),48.457725,-123.27811,
101288,San Juan at Wakefield (EB),48.479479,-123.30916,
101289,Six Mile at Damon (EB),48.45738366,-123.4620566,
101290,San Juan at Wakefield (WB),48.479378,-123.308415,
101291,Six Mile at Damon (WB),48.457579,-123.462453,
101292,Shelbourne at Robinwood (SB),48.488972,-123.338057,
101293,Interurban at Courtland (SB),48.485625,-123.415534,
101294,Gordon Head at San Juan (NB),48.479251,-123.307455,
101295,Mann at Wilkinson (EB),48.48951,-123.400587,
101296,Milburn at Hatley (SB),48.419421,-123.48066,
101297,Emily Carr at Thistlewood (WB),48.492405,-123.372259,
101298,Mann at Wilkinson (WB),48.489708,-123.400819,
101299,Majestic at Hawthorne (NB),48.48789,-123.331208,
101300,Emily Carr at Owlwood (EB),48.492662,-123.371074,
101301,Shelbourne at Robinwood (NB),48.489345,-123.337767,
101302,Interurban at Alan (NB),48.48689,-123.415463,
101303,Lagoon at Heatherbell (WB),48.420787,-123.480218,
101304,Atkins at Country (NB),48.44992,-123.470235,
101305,Tyndall at Hillcrest (NB),48.485227,-123.320216,
101306,Chatterton at Dalewood (SB),48.493048,-123.383974,
101307,Atkins at Myra (NB),48.452382,-123.468718,
101308,Tyndall at Hillcrest (SB),48.485415,-123.320288,
101309,Atkins at Country (SB),48.450023,-123.470404,
101310,Sooke at Aldeane (EB),48.43999,-123.47667,
101311,Atkins at Six Mile (EB),48.458177,-123.464484,
101312,Atkins at Myra (SB),48.45254038,-123.4689428,
101313,Chatterton at Dalewood (NB),48.493464,-123.383584,
101315,Atkins at Six Mile (WB),48.458228,-123.4648,
101316,West Saanich 4450 block (NB),48.492837,-123.387278,
101317,Island View at Pat Bay Hwy (WB),48.57244504,-123.400253,
101318,West Saanich 4450 block (SB),48.492795,-123.387503,
101319,Arbutus 2800 block (NB),48.459346,-123.275806,
101320,Atkins at Anya (SB),48.456456,-123.467383,
101321,Emily Carr at Shadywood (NB),48.494411,-123.367924,
101322,Atkins at Anya (NB),48.456437,-123.467186,
101323,Emily Carr at Lohbrunner Rd W (SB),48.494035,-123.368331,
101324,Wilkinson at Miller (SB),48.491187,-123.400564,
101325,Sooke at Cottonwood Creek (WB),48.43977,-123.478096,
101326,Goldstream at Wale (WB),48.44398643,-123.4759076,
101327,Majestic at Wycliffe (SB),48.48978958,-123.3302633,
101328,Wilkinson at Lindsay (NB),48.49224,-123.399861,
101329,Majestic at Edgemont (NB),48.4901115,-123.3298545,
101330,Goldstream at Wale (EB),48.44357,-123.475034,
101331,Gordon Head at Sage (SB),48.48138975,-123.3053187,
101332,Gordon Head at Sage (NB),48.481401,-123.305063,
101333,Chatterton at Royal Oak (EB),48.494626,-123.384616,
101334,Westshore Pkwy AT Commander Crt (SB),48.44155573,-123.536173,
101335,Chatterton at Royal Oak (WB),48.494695,-123.384419,
101336,Benhomer at Metchosin (EB),48.417047,-123.483395,
101337,Lagoon at Christopher (WB),48.420312,-123.484137,
101338,Metchosin at Farview (NB),48.4185,-123.483975,
101339,Metchosin at Daniel (SB),48.417896,-123.483805,
101340,Lagoon at Christopher (EB),48.420186,-123.484063,
101341,Interurban at Hector (SB),48.4891,-123.418049,
101342,Atkins 370 block (WB),48.447645,-123.476947,
101343,Benhomer at Swindell (WB),48.417191,-123.484395,
101344,Ferndale at Houlihan (SB),48.48367,-123.305796,
101345,West Saanich at Elk Lake (NB),48.495684,-123.389267,
101346,Majestic at Michelle (NB),48.491415,-123.329073,
101347,Interurban at Hector (NB),48.48931274,-123.4181227,
101348,Atkins 360 block (EB),48.447549,-123.477439,
101349,Ferndale at Houlihan (NB),48.483442,-123.305488,
101350,Metchosin at Farview (SB),48.419236,-123.484738,
101351,Chatterton 4540 block (WB),48.496557,-123.383536,
101352,West Saanich at Elk Lake (SB),48.495789,-123.389623,
101353,Chatterton 4550 block (EB),48.496434,-123.383233,
101354,Majestic at Ash (SB),48.492107,-123.328855,
101355,Tyndall at El Sareno (NB),48.488053,-123.318449,
101356,Emily Carr at Rithetwood (SB),48.496992,-123.366462,
101357,Tyndall at Grandview (SB),48.488803,-123.318241,
101358,Ferndale at Evergreen (EB),48.48502,-123.307305,
101359,Ferndale at Grandview (WB),48.485251,-123.307676,
101360,Wilkinson at Greenlea (EB),48.495357,-123.397236,
101361,Ash at Bissenden (EB),48.491145,-123.324054,
101362,Royal Oak 920 block (EB),48.497499,-123.372937,
101363,Ash at Torquay (EB),48.490598,-123.321852,
101364,Wilkinson at Greenlea (WB),48.49527208,-123.39784,
101365,Camosun Interurban,48.490531,-123.418723,
101366,Chatterton at Royal Oak (NB),48.497085,-123.379804,
101367,Ash at Bissenden (WB),48.491439,-123.324659,
101368,Ash at Torquay (WB),48.490704,-123.32175,
101369,Chatterton at Royal Oak (SB),48.497131,-123.380031,
101370,Royal Oak at Chatterton (EB),48.49749,-123.377627,
101371,Metchosin at Painter (NB),48.42186856,-123.4868169,
101372,Royal Oak at Boulderwood (WB),48.497732,-123.373938,
101373,West Park 1900 block (WB),48.462932,-123.467228,
101374,Atkins at Crystalview (NB),48.450047,-123.4781,
101375,Interurban at Main Entrance (NB),48.490682,-123.419288,
101376,Metchosin at Sangster (SB),48.42135488,-123.4867346,
101377,Atkins at Crystalview (SB),48.449961,-123.478264,
101378,Goldstream at Kristina (EB),48.445251,-123.481065,
101379,Ferndale at Saltair (SB),48.486321,-123.30787,
101380,Goldstream at Kristina (WB),48.445402,-123.481137,
101381,Royal Oak at Chatterton (EB),48.498039,-123.380587,
101382,Royal Oak at Tanglewood (EB),48.498457,-123.369531,
101384,Emily Carr at Carolwood (NB),48.498435,-123.366068,
101385,Benhomer at Tibbitt (EB),48.417803,-123.487486,
101386,VI Technology Park Main Entrance,48.493861,-123.409899,
101387,Cordova Bay at Ash (NB),48.495889,-123.335847,
101388,Metchosin at Raynerwood (NB),48.424179,-123.488271,
101389,Wilkinson 4530 block (SB),48.49724931,-123.3948679,
101390,Ferndale at Saltair (NB),48.486693,-123.30756,
101391,Markham 4470 block (EB),48.494184,-123.411748,
101392,Markham at West Saanich (SB),48.500186,-123.403234,
101393,Royal Oak at Tanglewood (WB),48.498692,-123.369353,
101394,Markham at West Saanich (NB),48.500042,-123.403102,
101395,Markham 4470 block (WB),48.494375,-123.411737,
101396,Tyndall at Leabrook (NB),48.490411,-123.317097,
101397,Wilkinson 4560 block (NB),48.497207,-123.394704,
101398,Benhomer at Painter (WB),48.41826,-123.488746,
101399,West Saanich at Pipeline (WB),48.497756,-123.392205,
101400,Royal Oak Exchange Bay A,48.49810052,-123.3889509,800011
101401,Royal Oak Exchange Bay I,48.498626,-123.38424,800011
101402,Royal Oak at Falaise (WB),48.498707,-123.38212,
101403,Markham 4540 block (NB),48.497007,-123.404914,
101404,Emily Carr at Carolwood (EB),48.499206,-123.366823,
101405,Tyndall at Barrie (SB),48.490994,-123.316957,
101406,Markham 4530 block (SB),48.496377,-123.405448,
101407,Royal Oak Exchange Bay H,48.49869111,-123.3859581,800011
101408,Royal Oak Exchange Bay F,48.498922,-123.387503,800011
101409,Painter at Sue Mar (NB),48.417189,-123.489541,
101410,Ferndale at Seawood (EB),48.491118,-123.315417,
101411,Interurban at Hughes (SB),48.491635,-123.419757,
101412,Royal Oak at West Saanich (EB),48.498494,-123.393134,
101413,Royal Oak at Emily Carr (SB),48.49991,-123.367109,
101414,Royal Oak Exchange Bay C,48.499008,-123.388907,800011
101415,Goldstream at Vantilburg (EB),48.445681,-123.483682,
101416,Royal Oak Exchange Bay E,48.499147,-123.387367,800011
101417,Painter at Bidwell (SB),48.417048,-123.489831,
101418,Royal Oak at Amblewood (NB),48.499874,-123.366893,
101419,Sooke at Acacia (EB),48.437035,-123.486583,
101420,Ferndale at Seawood (WB),48.491137,-123.314989,
101421,Ferndale at Pomona (EB),48.490082,-123.31158,
101422,Ferndale at Pauls (NB),48.488407,-123.306978,
101423,Ferndale at Pauls (SB),48.488319,-123.307198,
101424,Royal Oak Exchange Bay D,48.499234,-123.388704,800011
101425,Sooke at Mount View (WB),48.436717,-123.487438,
101426,Ferndale at Pomona (WB),48.49028367,-123.3117935,
101427,Metchosin at Wishart (SB),48.42604632,-123.4903518,
101428,Ferndale at Vantreight (EB),48.489215,-123.308391,
101429,Royal Oak at Smokey Smith (WB),48.499159,-123.392141,
101430,Royal Oak Exchange Bay B,48.498475,-123.388654,800011
101431,Ferndale at Vantreight (WB),48.48936249,-123.3084313,
101432,Goldstream at Vantilburg (WB),48.445959,-123.484705,
101433,Wishart at Allandale (NB),48.424649,-123.491438,
101434,Interurban at Conway (SB),48.493481,-123.419639,
101435,Interurban at Conway (NB),48.493572,-123.41944,
101436,Metchosin at Wishart (NB),48.427202,-123.491559,
101437,Sooke 2210 block (EB),48.435355,-123.489843,
101438,Elk Lake at Caselton (NB),48.501185,-123.386171,
101439,Elk Lake 4630 block (SB),48.500397,-123.387051,
101440,Royal Oak at Lochside (WB),48.501345,-123.362595,
101441,Dressler 440 block (EB),48.416442,-123.492505,
101442,Atkins at Leggett (EB),48.450006,-123.484339,
101443,Sooke 2210 block (WB),48.43545,-123.489944,
101444,Wishart at Owens (NB),48.421966,-123.492957,
101445,Metchosin at Laren (SB),48.427865,-123.492577,
101446,Royal Oak at Lochside (EB),48.501752,-123.360841,
101447,Dressler 430 block (WB),48.416536,-123.492385,
101448,Royal Oak Exchange Bay G,48.4988597,-123.3869398,800011
101449,Markham at Parking Lot 3 (EB),48.492963,-123.414232,
101450,Metchosin at Laren (NB),48.42805457,-123.4925628,
101451,Metchosin at Farhill (NB),48.400354,-123.49002,
101452,Kelly at Sooke (WB),48.435236,-123.491981,
101453,Sooke at Heatherly (EB),48.434393,-123.492274,
101454,Royal Oak at McMorran (WB),48.502553,-123.359383,
101455,Metchosin at Farhill (WB),48.400087,-123.49068,
101456,Goldstream at Grainger (EB),48.446243,-123.487444,
101457,Selwyn at Selwyn Oaks (NB),48.450458,-123.485824,
101458,Dressler at Wishart (EB),48.416847,-123.494437,
101459,Markham at Parking Lot 3 (WB),48.493011,-123.414674,
101460,Kelly at Sooke (EB),48.435164,-123.492188,
101461,Interurban at Delmar (NB),48.495206,-123.419362,
101462,Selwyn at Selwyn Oaks (SB),48.450401,-123.486008,
101463,Sooke at Ridley (WB),48.434265,-123.493066,
101464,Wishart at Stornoway (NB),48.41881294,-123.494992,
101465,Colwood Exchange Bay C,48.4451319,-123.4665205,800017
101466,Wishart at Webb (NB),48.417902,-123.495088,
101467,Goldstream at Grainger (WB),48.446417,-123.487709,
101468,Wishart at Acland (NB),48.420401,-123.495354,
101469,Colwood Exchange Bay D,48.44510387,-123.466342,800017
101470,Wishart at Rockwood (NB),48.416099,-123.495582,
101471,Selwyn at Downhome (NB),48.452411,-123.486029,
101472,Royal Oak at Firbank (EB),48.503316,-123.356405,
101473,Metchosin at Eiderwood (NB),48.430774,-123.494878,
101474,Wishart at Dressler (SB),48.4173165,-123.4956186,
101475,Cordova Bay 4560 block (SB),48.5017,-123.343306,
101476,Cordova Bay at Westbank (WB),48.50252,-123.343984,
101477,Elk Lake at Marsett (NB),48.50400267,-123.3856276,
101478,Elk Lake at Marsett (SB),48.503303,-123.385881,
101479,Metchosin at Trout (NB),48.431984,-123.495339,
101480,Metchosin at Cedarcrest (SB),48.431338,-123.495297,
101481,Royal Oak at Blenkinsop (WB),48.503661,-123.355144,
101482,Stornoway at Strathdee (SB),48.418576,-123.496393,
101483,Cordova Bay at Lavinia (EB),48.50329,-123.349516,
101484,Selwyn at Wynwood (SB),48.453111,-123.486504,
101485,Cordova Bay at Lavinia (WB),48.503433,-123.349561,
101486,Kelly at Metchosin (EB),48.43582,-123.494748,
101487,Cairndale at Willowdale (EB),48.419873,-123.497214,
101488,Kelly at Metchosin (WB),48.436243,-123.495933,
101489,Westshore Pkwy AT Kettle Lake Dr (NB),48.45412479,-123.5413988,
101490,Interurban at Viaduct Ave W (SB),48.4984,-123.419382,
101491,Westshore Pkwy at Kettle Lake Dr (SB),48.45369111,-123.5416975,
101492,Selwyn at Leckfield (NB),48.455696,-123.486663,
101493,Interurban at Viaduct Ave W (NB),48.499104,-123.419156,
101494,Selwyn at Mill Hill (EB),48.456026,-123.48708,
101495,Cairndale at Brenda (EB),48.42033954,-123.4992289,
101496,Wishart 3480 block (NB),48.411773,-123.498551,
101497,Sooke at Carran (EB),48.431978,-123.49793,
101498,Stornoway at Rothnie (WB),48.418969,-123.499466,
101499,Metchosin at Pelican (EB),48.398534,-123.494515,
101500,Quayle at Beaver (EB),48.501412,-123.413928,
101501,Sooke 4110 block (SB),48.411325,-123.585872,
101502,Duke Rd E at Haystock (NB),48.397117,-123.495453,
101503,Beaver at Quayle (SB),48.50160972,-123.4138242,
101504,Metchosin at Pelican (WB),48.398586,-123.495421,
101505,Sooke at Lynnlark (WB),48.431674,-123.498887,
101506,Duke Rd E at Haystock (SB),48.396819,-123.495729,
101507,Goldstream at Granderson (EB),48.44691118,-123.4940633,
101508,Wishart at Bunker (NB),48.409399,-123.499852,
101509,Kelly at Pickford (EB),48.436785,-123.498571,
101510,Selwyn at Wentwich (WB),48.456685,-123.488866,
101511,Latoria at Wishart (WB),48.406468,-123.500968,
101512,Cordova Bay at Mysty (SB),48.50615,-123.355375,
101513,Goldstream at Aldwynd (WB),48.447092,-123.494238,
101514,Cordova Bay at Timber (WB),48.506823,-123.356101,
101515,Stornoway at Cairndale (NB),48.42098,-123.501573,
101516,Veteran Memorial 2820 block (NB),48.446086,-123.496026,
101517,Duke Rd E at Dutnall (NB),48.393609,-123.495685,
101518,Selwyn at Wentwich (EB),48.457047,-123.489868,
101519,Kelly at Pickford (WB),48.437183,-123.499636,
101520,Veteran Memorial at Station (SB),48.445968,-123.496502,
101521,Veteran Memorial at Hoffman (NB),48.45024188,-123.4950546,
101522,Duke Rd E at Dutnall (SB),48.393054,-123.496082,
101523,Cordova Bay at Galey (SB),48.508327,-123.358108,
101524,Beaver Lake at West Saanich (EB),48.505009,-123.407911,
101525,Veteran Memorial at Percy (SB),48.450416,-123.495443,
101526,Quayle at Elk (EB),48.502636,-123.418572,
101527,Veteran Memorial at Allandale (SB),48.428033,-123.502333,
101528,Quayle at Elk (WB),48.502746,-123.41852,
101529,Cordova Bay at Galey (NB),48.508504,-123.35809,
101530,Veteran Memorial 3240 block (NB),48.430473,-123.502821,
101531,Veteran Memorial at Cairndale (NB),48.421908,-123.503796,
101532,Cairndale at Veteran Memorial (EB),48.421284,-123.503608,
101533,Latoria at Pondside (EB),48.406604,-123.502465,
101534,Langford Exchange Bay B,48.445454,-123.505016,800003
101535,Veteran Memorial Pky (NB),48.452507,-123.495186,
101536,Beaver at West Saanich (WB),48.50512919,-123.408011,
101537,Duke Rd E at Chapel Heights (NB),48.390961,-123.496998,
101538,Elk Lake at Beaver Lake (NB),48.509524,-123.384475,
101539,Goldstream at Bryn Maur (EB),48.448091,-123.497393,
101540,Elk Lake at Beaver Lake (SB),48.509243,-123.384725,
101541,Strandlund at Duncan (WB),48.45683241,-123.4927996,
101542,Langford Exchange Bay C,48.44553,-123.504662,800003
101543,Strandlund at Duncan (EB),48.456623,-123.493457,
101544,Treanor at Rockcliffe (WB),48.465595,-123.486783,
101545,Duke Rd E at Chapel Heights (SB),48.39049181,-123.4975342,
101546,Goldstream at Claude (WB),48.44892,-123.498993,
101547,Goldstream at 1200 Block (WB),48.45049009,-123.5264508,
101548,Sooke at Fulton (NB),48.429915,-123.505562,
101549,Langofrd Parkway at Eagle Ridge Arena,48.44336339,-123.519644,
101550,Cordova Bay at Sunnygrove (SB),48.510675,-123.361719,
101551,Duke Rd E 3770 block (NB),48.389154,-123.498294,
101552,Sooke at Fulton (EB),48.429695,-123.505433,
101553,Veteran Memorial 2920 block (SB),48.440947,-123.503014,
101554,Cordova Bay at Sunnygrove (NB),48.51088,-123.361627,
101555,Phelps at Heather Ann (EB),48.467295,-123.487023,
101556,Langofrd Parkway at Eagle Ridge Arena,48.44353586,-123.5205287,
101557,Veteran Memorial at Kelly (NB),48.439048,-123.504101,
101558,Goldstream AT 1170 Block (WB),48.44987614,-123.5244274,
101559,Veteran Memorial at Trans-Canada Hwy (NB),48.455526,-123.496421,
101560,Peatt 2700 block (NB),48.452723,-123.498484,
101561,Peatt at Arncote (NB),48.454504,-123.4975,
101562,Veteran Memorial 3020 block (SB),48.43746,-123.504779,
101563,Duke Rd E 3790 block (SB),48.388621,-123.498859,
101564,Peatt at Goldstream (NB),48.450102,-123.500075,
101565,Langford Parkway at Westhills Stadium,48.44394668,-123.5268946,
101566,Peatt 2710 block (SB),48.452536,-123.4988,
101567,Kelly at Veteran Memorial (WB),48.438299,-123.505368,
101568,Peatt at Arncote (SB),48.454571,-123.497635,
101569,Peatt at Goldstream (SB),48.449849,-123.500448,
101570,Latoria 570 block (WB),48.407565,-123.506998,
101571,Latoria 570 block (EB),48.407424,-123.507052,
101572,Veteran Memorial at Strandlund (SB),48.454506,-123.496217,
101573,Langford Exchange Bay A,48.445321,-123.505737,800003
101574,Goldstream at Peatt (EB),48.449434,-123.501575,
101575,West Saanich at Beaver (EB),48.508456,-123.410038,
101576,Fulton at Karger (SB),48.42127643,-123.5087073,
101577,Treanor at Cottier (WB),48.46557604,-123.4910923,
101580,Sooke at Cecil Blogg (WB),48.432303,-123.509986,
101581,Cordova Bay at Maxine (SB),48.513167,-123.364892,
101582,Cordova Bay at Maxine (WB),48.513139,-123.364556,
101583,Cuaulta 790 block (SB),48.425531,-123.509748,
101584,Jenkins at Phipps (EB),48.438393,-123.507943,
101585,Sooke at Cecil Blogg (EB),48.431801,-123.509329,
101586,Phelps at Sabina (EB),48.466814,-123.491557,
101588,Duke Rd E 3810 block (EB),48.38784,-123.50146,
101589,Bexhill 730 block (EB),48.423509,-123.510455,
101590,West Saanich at Old West Saanich (WB),48.509165,-123.411301,
101591,Duke Rd E at Gilbert (WB),48.388337,-123.502629,
101592,Treanor at Bellamy (WB),48.464916,-123.493685,
101593,Langford Parkway at Westhills Stadium,48.44373786,-123.5269347,
101595,Fulton at Sunheights (SB),48.419836,-123.511199,
101596,Elk Lake 4880 block (SB),48.512461,-123.384379,
101597,Goldstream at Jacobson (WB),48.450142,-123.50427,
101598,Haliburton at Arsenault (WB),48.514261,-123.375676,
101599,Haliburton at Highgate (EB),48.514195,-123.379549,
101601,Cuaulta at Zapata (NB),48.426491,-123.511467,
101602,Millstream 2410 block (NB),48.461293,-123.497641,
101603,Treanor at Selwyn (EB),48.464653,-123.49554,
101604,Gourman at Bellamy (WB),48.470559,-123.490089,
101605,Haliburton at Highgate (WB),48.51433,-123.380552,
101606,Bellamy at Larabie (EB),48.469347,-123.491508,
101607,Jenkins 840 block (WB),48.43882617,-123.5093165,
101609,Bellamy at Phelps (NB),48.466729,-123.493974,
101610,Duke Rd E at Gilbert (WB),48.388351,-123.504085,
101611,Sunheights at Claudette (NB),48.42072662,-123.5124495,
101612,Latoria at Castlewood (WB),48.409351,-123.511448,
101613,Latoria at Castlewood (EB),48.409196,-123.511475,
101616,Patricia Bay at Haliburton (NB),48.515023,-123.384276,
101618,Goldstream at Jacobson (EB),48.450216,-123.504871,
101619,Duke Rd E at Gilbert (EB),48.38816466,-123.5045817,
101620,Jacklin at Orono (NB),48.44799,-123.507102,
101621,Jacklin at Lequesne (SB),48.449693,-123.5063,
101622,Goldie at Bellamy (EB),48.468437,-123.493379,
101623,Treanor at Hoylake (WB),48.464728,-123.497135,
101624,Jacklin at Orono (SB),48.447383,-123.507646,
101625,Jacklin at Station (NB),48.445419,-123.508589,
101626,Langford Parkway at Langford Lake Road,48.44512583,-123.5359112,
101627,West Saanich at Goward (SB),48.510906,-123.414652,
101628,Jenkins 850 block (EB),48.438791,-123.509666,
101629,Gourman at Brandy (WB),48.470556,-123.492888,
101630,Jacklin at Rex (NB),48.44161,-123.510772,
101631,Goldstream at Jacklin (WB),48.450849,-123.506361,
101632,Jacklin at Dunford (SB),48.44439,-123.50943,
101633,West Saanich at Interurban (NB),48.511673,-123.414559,
101634,Walfred 900 block (SB),48.42751,-123.514235,
101635,Jacklin at Jenkins (SB),48.440793,-123.511473,
101636,Duke Rd W at Cliff (NB),48.391578,-123.508389,
101637,Millstream 2330 block (NB),48.463808,-123.499201,
101638,Treanor at Belair (EB),48.464541,-123.49879,
101639,Goldstream at Matson (EB),48.450882,-123.507528,
101640,Jacklin at Terlane (NB),48.438632,-123.512526,
101641,Wesley at Strangcrest (SB),48.515965,-123.374218,
101642,Desmond at Wendey (SB),48.413975,-123.514707,
101643,Sunheights at Batting (WB),48.41893,-123.514847,
101644,Duke Rd W at Cliff (SB),48.391506,-123.508561,
101645,Jacklin at Terlane (SB),48.43868,-123.512711,
101646,Treanor at Belair (WB),48.464625,-123.499193,
101647,Latoria at Kelly Dawn (EB),48.410745,-123.514685,
101648,Sooke at Jacklin (EB),48.4337,-123.514451,
101649,Goldstream AT Leigh Rd (WB),48.44970958,-123.5188355,
101651,Millstream 2400 block (SB),48.461391,-123.498086,
101652,Latoria at Kelly Dawn (WB),48.411054,-123.515215,
101653,Sunheights at Columbus (SB),48.417265,-123.51566,
101654,Jacklin at Sunridge Valley (NB),48.43547263,-123.5142691,
101655,Jenkins at Avrill (WB),48.440648,-123.512661,
101656,Dunford 920 block (WB),48.445094,-123.511291,
101657,Walfred 910 block (EB),48.42882,-123.515512,
101658,Jacklin at Sunridge Valley (SB),48.435469,-123.514492,
101659,Jenkins at Avrill (EB),48.440604,-123.513048,
101660,Cordova Bay at Claremont (NB),48.517766,-123.366929,
101661,Cordova Bay at Haliburton (SB),48.517518,-123.367059,
101663,Claremont at Cambria Wood (EB),48.517918,-123.376437,
101664,Metchosin at Duke Rd W (EB),48.392958,-123.510584,
101665,Latoria at Desmond (EB),48.411307,-123.516694,
101666,Metchosin at Duke Rd W (WB),48.393026,-123.510803,
101667,McCallum at Florence Lake (SB),48.45397762,-123.5096309,
101668,Goldstream 970 block (EB),48.450239,-123.510796,
101669,Latoria at Desmond (WB),48.41156297,-123.5170485,
101670,Florence Lake at Citation (NB),48.455898,-123.507834,
101671,Millstream at Hoylake (NB),48.46588585,-123.5010528,
101672,Sooke at Jacklin (WB),48.434037,-123.516552,
101673,Goldstream 990 block (WB),48.45036434,-123.5108714,
101674,Florence Lake at Citation (SB),48.455585,-123.507972,
101675,Jacklin at Cecil Blogg (SB),48.430604,-123.517416,
101676,Spencer at Trans-Canada (NB),48.45350663,-123.5096781,
101678,Westshore Pkwy AT Westhills Dr (SB),48.44888437,-123.54085,
101679,Goldstream at Spencer (EB),48.449879,-123.512423,
101680,Cordova Bay at Gloria (SB),48.519501,-123.367231,
101681,Dunford at Carlow (WB),48.445891,-123.514491,
101682,Millstream at Goldie (SB),48.467416,-123.501869,
101683,Sooke at Ayton (EB),48.433246,-123.518474,
101684,Jenkins at Hull (WB),48.441441,-123.51646,
101685,Dunford at Carlow (EB),48.445744,-123.514332,
101686,Carlow at Goldstream (SB),48.449238,-123.5133,
101687,Carlow at Costin (NB),48.44757134,-123.5142058,
101688,Langford Parkway at Langford Lake Road,48.44485657,-123.5358724,
101689,Jenkins at Hull (EB),48.44133854,-123.5168353,
101690,Cordova Bay at Gloria (NB),48.520012,-123.367106,
101691,Sooke at Ayton (WB),48.433284,-123.518919,
101692,Carlow at Linda (SB),48.44721836,-123.514753,
101693,Latoria at Klahanie (WB),48.412921,-123.520267,
101694,Florence Lake at Rhapsody (NB),48.458207,-123.509939,
101695,Florence Lake at Rhapsody (SB),48.458013,-123.509977,
101696,Latoria at Klahanie (EB),48.413207,-123.52124,
101697,Setchfield at Buckler (NB),48.462183,-123.507785,
101698,Setchfield at High Forest (SB),48.463255,-123.507019,
101699,Treanor at Camli (EB),48.465893,-123.505166,
101700,Treanor at Camli (WB),48.46624336,-123.5054211,
101701,Setchfield at Martin (NB),48.460743,-123.509643,
101702,All-Fun Recreation,48.47076292,-123.5039617,
101703,Millstream at Hordon (EB),48.47017817,-123.5031776,
101704,Sooke at Willshire (WB),48.432729,-123.521794,
101705,Setchfield 2360 block (NB),48.465577,-123.507522,
101706,Florence Lake at Setchfield (NB),48.459755,-123.511269,
101707,Sooke at Willshire (EB),48.43261,-123.521659,
101708,Langford Parkway at Quality Foods,48.44300599,-123.514568,
101709,Florence Lake at Setchfield (SB),48.459364,-123.511338,
101710,Jenkins at Haslam (EB),48.441659,-123.519877,
101711,West Saanich at Observatory (EB),48.51693,-123.421418,
101712,Goldstream at Leigh (EB),48.449569,-123.517453,
101713,Jenkins at Haslam (WB),48.441878,-123.520608,
101714,Treanor at Misty (WB),48.467048,-123.507016,
101715,Cordova Bay at Doumac (SB),48.522711,-123.367575,
101716,Latoria 850 block (WB),48.414681,-123.524615,
101717,Setchfield at Treanor (NB),48.466498,-123.508255,
101718,Cordova Bay at Doumac (NB),48.52310745,-123.3675119,
101719,Latoria 860 block (EB),48.414577,-123.524693,
101720,Setchfield at Treanor (SB),48.4666,-123.508498,
101721,Bear Mountain Pkwy Farside Longspur (EB),48.47022571,-123.5080495,
101722,Bear Mountain Pkway Nearside Longspur (WB),48.47034703,-123.5085169,
101723,Sooke at Willshire (WB),48.432934,-123.523896,
101724,Sooke at Willshire (EB),48.432794,-123.524008,
101725,West Saanich at Observatory (NB),48.51777,-123.421801,
101726,Jenkins at Glen Lake (EB),48.441814,-123.522742,
101727,Jenkins at Glen Lake (WB),48.441905,-123.523005,
101728,Metchosin at Lomax (EB),48.391723,-123.520735,
101729,Glen Lake at Page (NB),48.434085,-123.525597,
101730,Goldstream AT1170 Block  (EB),48.449587,-123.524154,
101731,Glen Lake at Paddle (SB),48.434302,-123.525652,
101732,Westshore Pkwy at Westhills Dr (NB),48.44718415,-123.539417,
101733,Glen Lake at Colbourne (NB),48.436087,-123.525756,
101734,Metchosin at Lomax (WB),48.39181879,-123.5212158,
101735,Westshore Pkwy at Landing Lane (SB),48.45165567,-123.5415895,
101736,Glen Lake at Colbourne (SB),48.436019,-123.525903,
101737,Cordova Bay at Sutcliffe (SB),48.525241,-123.368468,
101738,Bear Mountain at Echo Valley (EB),48.46898274,-123.5122337,
101739,Glen Lake at Waterlily (NB),48.438542,-123.52759,
101740,Cordova Bay at Walema (NB),48.526417,-123.368303,
101741,Bear Mountain at Echo Valley (WB),48.46910925,-123.5121484,
101742,Glen Lake at Waterlily (SB),48.438477,-123.527773,
101743,Glen Lake at Springhill (WB),48.44269776,-123.5267198,
101744,Sooke at Ronald (EB),48.43237948,-123.5296737,
101745,Glen Lake at Springhill (EB),48.44260586,-123.5262716,
101746,Happy Valley at Acadian (NB),48.427632,-123.530068,
101747,Goldstream at Hartsdale (EB),48.44917702,-123.5209413,
101748,Happy Valley at Huckleberry (SB),48.427488,-123.530355,
101749,Sooke at Ronald (WB),48.432621,-123.529442,
101750,Langford Parkway at Quality Foods,48.4428389,-123.5146053,
101751,Metchosin at Pears (NB),48.389738,-123.525554,
101752,Glen Lake at Glenview (NB),48.441374,-123.528746,
101753,Marwood at Hazelwood (EB),48.428986,-123.531758,
101754,Glen Lake at Kathlynn (NB),48.43972132,-123.5290658,
101755,Glen Lake at Kathlynn (SB),48.4397023,-123.5293156,
101756,Glen Lake at Glenview (SB),48.44101877,-123.5295816,
101757,Marwood at Hazelwood (WB),48.429161,-123.531997,
101758,Metchosin 4110 block (SB),48.38947395,-123.5260573,
101759,Latoria at Happy Valley (WB),48.416135,-123.532815,
101760,Happy Valley at Flatman (NB),48.42307,-123.532746,
101761,Happy Valley at Luxton (NB),48.419584,-123.532901,
101762,Happy Valley at Latoria (NB),48.416499,-123.532999,
101763,Bear Mountain at Stone Gate (NB),48.472615,-123.512833,
101764,Happy Valley at Flatman (SB),48.422606,-123.533048,
101765,Happy Valley at Dicker (NB),48.413504,-123.532995,
101766,Happy Valley at Luxton (SB),48.418621,-123.533094,
101767,Cordova Bay at Hanover (EB),48.528763,-123.372719,
101768,Happy Valley at Latoria (SB),48.416312,-123.533232,
101769,Happy Valley at Dicker (SB),48.413701,-123.533175,
101770,Westshore Pkwy farside Landing Lane (NB),48.4517029,-123.5412691,
101771,Admirals Rd at Maple Bank (SB),48.44172688,-123.427886,
101772,Marwood at Luxton (EB),48.429523,-123.534389,
101773,Sooke at Penwood (WB),48.431111,-123.533606,
101774,Sooke at Penwood (EB),48.43077355,-123.5341768,
101775,Happy Valley at Vitality (WB),48.412666,-123.53455,
101776,Happy Valley at Vitality (EB),48.412484,-123.53463,
101777,Cordova Bay at Sayward Hill (NB),48.530396,-123.374298,
101778,Admirals at Maple Bank (NB),48.44184009,-123.4277484,
101780,Metchosin at Witty Beach (SB),48.384335,-123.526975,
101781,Goldstream at Wenger (SB),48.452016,-123.528711,
101782,Metchosin at Witty Beach (NB),48.38404939,-123.5269395,
101783,West Saanich at Prospect Lake (EB),48.52371641,-123.4305954,
101784,Cordova Bay at Hill Rise (WB),48.53067,-123.382218,
101785,Cordova Bay at Alderley (WB),48.530736,-123.384015,
101786,West Saanich at Prospect Lake (WB),48.523869,-123.430621,
101787,Goldstream at Lakeshore (EB),48.453289,-123.530522,
101788,Cordova Bay at Fowler (WB),48.532195,-123.376751,
101789,Bear Mountain at Players (EB),48.474311,-123.517929,
101790,Bear Mountain at Players (WB),48.47444451,-123.5177295,
101791,Metchosin at Wootton (NB),48.382045,-123.528946,
101792,Happy Valley at Lomalinda (EB),48.41097855,-123.5380133,
101793,Happy Valley at Lomalinda (WB),48.41121982,-123.5378576,
101794,Metchosin at Wootton (SB),48.38217,-123.529065,
101796,Fowler at Cordova Bay (SB),48.53328,-123.378199,
101797,Happy Valley at Wild Ridge (NB),48.409829,-123.539652,
101798,Happy Valley at Wild Ridge (SB),48.409645,-123.539978,
101799,Metchosin at Happy Valley (NB),48.380283,-123.530656,
101800,Happy Valley at Centremont (NB),48.407549,-123.541523,
101801,Sooke 2880 block (EB),48.429228,-123.539793,
101802,Happy Valley at Winter (SB),48.407943,-123.541443,
101803,Fowler at Menawood (SB),48.535124,-123.37912,
101804,Bear Mountain at Nicklaus (EB),48.475077,-123.522142,
101805,William Head at Happy Valley (SB),48.37926,-123.531721,
101806,Glenshire at Sooke (SB),48.42919769,-123.5427265,
101807,Bear Mountain at Nicklaus (WB),48.475294,-123.523381,
101808,West Saanich at Hartland (EB),48.527389,-123.436482,
101809,Goldstream Ave Offramp at Trans-Canada Hwy (SB),48.455129,-123.534099,
101810,West Saanich at Hartland (WB),48.52758134,-123.4364691,
101811,William Head at Parry (NB),48.37696,-123.532575,
101812,William Head at Parry (SB),48.377016,-123.532778,
101815,Sooke at Awsworth (EB),48.425814,-123.563102,
101816,Happy Valley at Rocky Point (NB),48.382453,-123.538364,
101818,William Head 4550 block (NB),48.374919,-123.533791,
101819,Happy Valley at Rocky Point (SB),48.382472,-123.538638,
101820,West Shore 2880 block (NB),48.45671,-123.538972,
101821,Fowler at Sayward (SB),48.538295,-123.381095,
101822,Sooke at Awsworth (WB),48.42603,-123.563709,
101823,Patricia Bay at Sayward (NB),48.536712,-123.388902,
101825,Sayward at Fowler (EB),48.538644,-123.38334,
101826,William Head 4550 block (SB),48.37505,-123.533913,
101828,Patricia Bay at Sayward (SB),48.538215,-123.389543,
101829,Happy Valley at Neild (EB),48.40482,-123.547483,
101830,Happy Valley at Neild (WB),48.40477,-123.547836,
101831,Happy Valley 4370 block (SB),48.384441,-123.541619,
101832,Happy Valley 4360 block (NB),48.385132,-123.542244,
101833,Amy at West Shore Pky (WB),48.457878,-123.541032,
101834,Bear Mountain at Country Club Way (EB),48.475922,-123.530697,
101835,Happy Valley 4340 block (EB),48.386403,-123.544463,
101836,Happy Valley 4350 block (WB),48.386453,-123.544222,
101837,Happy Valley at Flesh (NB),48.402085,-123.550205,
101838,Rocky Point 4540 block (SB),48.3773,-123.54185,
101839,Happy Valley at Flesh (SB),48.40197,-123.550469,
101840,West Saanich at Matterhorn (SB),48.532286,-123.438539,
101841,Happy Valley at Bennett (NB),48.38877881,-123.5475685,
101842,Happy Valley at Glen Forest (NB),48.399331,-123.55081,
101843,Happy Valley at Bennett (SB),48.38864,-123.547659,
101844,West Saanich at Matterhorn (NB),48.533859,-123.43765,
101845,Happy Valley at Glen Forest (SB),48.399297,-123.551006,
101846,Phipps at Kelly (NB),48.440555,-123.505614,
101847,Rocky Point 4540 block (NB),48.377455,-123.54149,
101848,Happy Valley at Brookview (NB),48.397339,-123.551126,
101849,Happy Valley at Brookview (SB),48.397348,-123.551313,
101850,Amy at Sooke Lake (EB),48.458635,-123.545586,
101851,Happy Valley at Lindholm (WB),48.39320293,-123.5511811,
101852,Phipps at Kelly (SB),48.440604,-123.505803,
101853,Happy Valley at Lindholm (EB),48.3929,-123.550951,
101854,Amy at Sooke Lake (WB),48.458861,-123.545741,
101855,Taylor at William Head (WB),48.36920651,-123.5395069,
101856,West Saanich at Wallace (SB),48.535148,-123.437491,
101857,West Saanich at Wallace (NB),48.53553158,-123.4371669,
101858,William Head at Taylor (NB),48.36894525,-123.5395489,
101859,Rocky Point at Walpole (SB),48.374356,-123.544328,
